[{"mkz":"25470023","name":"Ottenhagen OP","lat":53.4168,"lon":13.64362},{"mkz":"25470024","name":"Ottenhagen UP","lat":53.41679,"lon":13.64365},{"mkz":"25480025","name":"Neumannshof","lat":53.45202,"lon":13.82654},{"mkz":"25480026","name":"Amalienhof","lat":53.45708,"lon":13.67741},{"mkz":"25481088","name":"Milow OP","lat":53.47585,"lon":13.82148},{"mkz":"25490020","name":"HyPr 106/84 OP,Bandelow OP","lat":53.4057,"lon":13.84887},{"mkz":"25496022","name":"Schönfeld, HyPaoPw 115/81 OP","lat":53.42632,"lon":13.97739},{"mkz":"25496025","name":"Schönfeld, HyPaoPw 115/81 UP","lat":53.42631,"lon":13.97746},{"mkz":"25500006","name":"Grimme","lat":53.4225,"lon":14.14472},{"mkz":"25501075","name":"Neuenfeld OP","lat":53.41774,"lon":14.03968},{"mkz":"25501076","name":"Neuenfeld UP","lat":53.41772,"lon":14.03977},{"mkz":"25510027","name":"Menkin","lat":53.41404,"lon":14.2117},{"mkz":"26381003","name":"Jännersdorf, am Friedhof","lat":53.3363,"lon":12.06052},{"mkz":"26390030","name":"Krempendorf OP","lat":53.33262,"lon":12.17785},{"mkz":"26390032","name":"Krempendorf UP","lat":53.33262,"lon":12.17785},{"mkz":"26390040","name":"Meyenburg","lat":53.31452,"lon":12.24678},{"mkz":"26471092","name":"Buchenhain","lat":53.31002,"lon":13.54863},{"mkz":"26471094","name":"Fürstenwerder","lat":53.38198,"lon":13.58885},{"mkz":"26471095","name":"Parmen OP","lat":53.34948,"lon":13.5879},{"mkz":"26471096","name":"Parmen UP","lat":53.34947,"lon":13.58793},{"mkz":"26471097","name":"Arendsee OP","lat":53.33259,"lon":13.62749},{"mkz":"26471098","name":"Arendsee MP","lat":53.33261,"lon":13.62752},{"mkz":"26471099","name":"Arendsee UP","lat":53.33258,"lon":13.62747},{"mkz":"26480022","name":"Schönermark-Wilhelmshof","lat":53.33185,"lon":13.72035},{"mkz":"26481051","name":"Holzendorf-Nord UP, LUGV 2/2014, eh. HyDdw 6/74 UP","lat":53.39607,"lon":13.76342},{"mkz":"26481052","name":"HyDdw 4/74, Holzendorf","lat":53.38565,"lon":13.78605},{"mkz":"26481057","name":"Gollmitz Nordwest OP","lat":53.30642,"lon":13.70918},{"mkz":"26486009","name":"Bollmannshof OP","lat":53.35347,"lon":13.7318},{"mkz":"26486010","name":"Bollmannshof UP","lat":53.35347,"lon":13.7318},{"mkz":"26486011","name":"Schapow, ARTESER","lat":53.34857,"lon":13.70784},{"mkz":"26486016","name":"Fischershof","lat":53.36129,"lon":13.73108},{"mkz":"26490028","name":"Prenzlau, UNI-Center","lat":53.3174,"lon":13.86686},{"mkz":"26490030","name":"Prenzlau, Kuhdamm OP","lat":53.32226,"lon":13.84201},{"mkz":"26490031","name":"Prenzlau, Kuhdamm UP","lat":53.32224,"lon":13.84201},{"mkz":"26491061","name":"Schönwerder OP neu","lat":53.38178,"lon":13.84035},{"mkz":"26491067","name":"Schenkenberg","lat":53.36676,"lon":13.94638},{"mkz":"26491068","name":"Baumgarten","lat":53.34022,"lon":13.9502},{"mkz":"26500002","name":"Frauenhagen","lat":53.38089,"lon":14.14556},{"mkz":"26501072","name":"Kleptow OP","lat":53.37023,"lon":14.00664},{"mkz":"26501073","name":"Kleptow UP","lat":53.37021,"lon":14.00661},{"mkz":"26501081","name":"Schwaneberg West","lat":53.32526,"lon":14.08964},{"mkz":"26510037","name":"Bagemühl","lat":53.35654,"lon":14.19553},{"mkz":"265210100","name":"Rosow, OP","lat":53.30683,"lon":14.38624},{"mkz":"265210101","name":"Rosow, UP","lat":53.30688,"lon":14.38628},{"mkz":"27370001","name":"Berge","lat":53.24101,"lon":11.87479},{"mkz":"27381002","name":"Nettelbeck OP","lat":53.28668,"lon":12.04314},{"mkz":"27381010","name":"Lockstädt OP","lat":53.21229,"lon":12.02279},{"mkz":"27381011","name":"Lockstädt UP","lat":53.2123,"lon":12.02279},{"mkz":"27381014","name":"Preddöhl UP","lat":53.22239,"lon":12.14786},{"mkz":"27390101","name":"Halenbeck, Waldrand","lat":53.25953,"lon":12.31899},{"mkz":"27400050","name":"Freyenstein, Koppel","lat":53.29114,"lon":12.39046},{"mkz":"27400058","name":"Zaatzke","lat":53.20066,"lon":12.40297},{"mkz":"27400059","name":"Wulfersdorf, an d. Redlitz","lat":53.25654,"lon":12.38879},{"mkz":"27400064","name":"Neu Cölln bei Freyenstein OP","lat":53.26962,"lon":12.37515},{"mkz":"27400070","name":"Wernikow OP","lat":53.21274,"lon":12.43965},{"mkz":"27400071","name":"Wernikow UP","lat":53.21274,"lon":12.43965},{"mkz":"27400110","name":"Wulfersdorf, Koppel Wolter","lat":53.24866,"lon":12.43292},{"mkz":"27400243","name":"Neu Cölln bei Freyenstein MP","lat":53.26962,"lon":12.37515},{"mkz":"27400244","name":"Neu Cölln bei Freyenstein UP","lat":53.26962,"lon":12.37515},{"mkz":"27410202","name":"Alt Daber, 1,3 km nördl.","lat":53.21872,"lon":12.50776},{"mkz":"27410224","name":"Alt Daber, Weg n. Buchholz OP","lat":53.20895,"lon":12.51072},{"mkz":"27410232","name":"Alt Daber, Weg n. Buchholz UP","lat":53.20895,"lon":12.51072},{"mkz":"27410250","name":"Dranse, 1 km nordöstl.","lat":53.20891,"lon":12.63796},{"mkz":"27440150","name":"Fürstenberg, Umspannwerk","lat":53.20914,"lon":13.13001},{"mkz":"27442189","name":"Thymensee OP","lat":53.22424,"lon":13.12417},{"mkz":"27442190","name":"Thymensee UP","lat":53.22424,"lon":13.12417},{"mkz":"27450129","name":"Altthymen, Bartelshof","lat":53.22994,"lon":13.16537},{"mkz":"27452330","name":"Lychen, Markgrafenallee","lat":53.21825,"lon":13.31808},{"mkz":"27452340","name":"Retzow/Rutenberg","lat":53.25352,"lon":13.25733},{"mkz":"27460295","name":"Küstrinchen, Schreibermühle","lat":53.23299,"lon":13.38164},{"mkz":"27460402","name":"Thomsdorfer Heckenhaus OP","lat":53.26321,"lon":13.44287},{"mkz":"27460403","name":"Thomsdorfer Heckenhaus UP","lat":53.26321,"lon":13.44287},{"mkz":"27460405","name":"Stabeshorst, Beenzer Ausbau","lat":53.24833,"lon":13.3502},{"mkz":"27461019","name":"Thomsdorf","lat":53.28137,"lon":13.46147},{"mkz":"27462311","name":"Küstrinchen","lat":53.21409,"lon":13.39961},{"mkz":"27470001","name":"Sternthal","lat":53.22194,"lon":13.62167},{"mkz":"27471020","name":"Boitzenburg","lat":53.26739,"lon":13.60438},{"mkz":"27481012","name":"Klein-Sperrenwalde OP","lat":53.28644,"lon":13.73777},{"mkz":"27481013","name":"Klein-Sperrenwalde MP","lat":53.28644,"lon":13.73777},{"mkz":"27481014","name":"Klein-Sperrenwalde UP","lat":53.28646,"lon":13.73785},{"mkz":"27485004","name":"Gollmitz UP","lat":53.29241,"lon":13.68334},{"mkz":"27485009","name":"Horst","lat":53.29751,"lon":13.75386},{"mkz":"27485031","name":"Zollchow OP","lat":53.26464,"lon":13.81969},{"mkz":"27485032","name":"Zollchow UP","lat":53.2646,"lon":13.81962},{"mkz":"27491023","name":"Berghausen MP","lat":53.23598,"lon":13.89609},{"mkz":"27501027","name":"Wartin OP","lat":53.24661,"lon":14.12013},{"mkz":"27501028","name":"Wartin UP","lat":53.24662,"lon":14.12005},{"mkz":"27501047","name":"Lützlow Nord OP","lat":53.25504,"lon":14.02823},{"mkz":"27501048","name":"Lützlow Nord UP","lat":53.25501,"lon":14.02825},{"mkz":"27505013","name":"Lützlow Süd MP","lat":53.22814,"lon":14.04033},{"mkz":"27505014","name":"Lützlow Süd UP","lat":53.2281,"lon":14.04036},{"mkz":"27505015","name":"Lützlow West OP","lat":53.23552,"lon":14.01316},{"mkz":"27505016","name":"Lützlow West UP","lat":53.2355,"lon":14.01317},{"mkz":"27511003","name":"Hohenselchow OP","lat":53.20831,"lon":14.28261},{"mkz":"27511004","name":"Hohenselchow UP","lat":53.20828,"lon":14.28258},{"mkz":"27511009","name":"Casekow, Wiese","lat":53.21519,"lon":14.20853},{"mkz":"27511011","name":"Casekow, Getreidewirtschaft","lat":53.2047,"lon":14.19655},{"mkz":"27511025","name":"Wartin OP","lat":53.23159,"lon":14.17609},{"mkz":"27511026","name":"Wartin UP","lat":53.23162,"lon":14.17603},{"mkz":"27511090","name":"Neuschönfeld OP","lat":53.2411,"lon":14.30397},{"mkz":"27511091","name":"Neuschönfeld UP","lat":53.24111,"lon":14.304},{"mkz":"27519029","name":"Schönfeld b.Gartz OP","lat":53.25381,"lon":14.27731},{"mkz":"27519030","name":"Schönfeld b.Gartz UP","lat":53.25381,"lon":14.27731},{"mkz":"27519033","name":"Tantow West","lat":53.26353,"lon":14.3142},{"mkz":"27521005","name":"Gartz OP","lat":53.2107,"lon":14.33442},{"mkz":"27521006","name":"Gartz UP","lat":53.21074,"lon":14.33441},{"mkz":"27521086","name":"Mescherin","lat":53.25251,"lon":14.43792},{"mkz":"28330005","name":"Baarz, am Achterdeich","lat":53.11223,"lon":11.28599},{"mkz":"28340010","name":"Moor OP","lat":53.12298,"lon":11.44189},{"mkz":"28340011","name":"Moor UP","lat":53.12298,"lon":11.44189},{"mkz":"28350010","name":"Ferbitz","lat":53.10245,"lon":11.57422},{"mkz":"28350020","name":"Boberow OP","lat":53.12114,"lon":11.61381},{"mkz":"28350021","name":"Boberow UP","lat":53.12114,"lon":11.61381},{"mkz":"28350023","name":"Sargleben OP","lat":53.19285,"lon":11.63483},{"mkz":"28350024","name":"Sargleben MP1","lat":53.19285,"lon":11.63483},{"mkz":"28350025","name":"Sargleben MP2","lat":53.19285,"lon":11.63483},{"mkz":"28350026","name":"Sargleben UP","lat":53.19285,"lon":11.63483},{"mkz":"28360020","name":"Stavenow","lat":53.14335,"lon":11.71131},{"mkz":"28360022","name":"Premslin OP","lat":53.13549,"lon":11.80254},{"mkz":"28360024","name":"Postlin OP","lat":53.18665,"lon":11.76217},{"mkz":"28360025","name":"Postlin MP1","lat":53.18665,"lon":11.76217},{"mkz":"28360027","name":"Postlin UP","lat":53.18665,"lon":11.76217},{"mkz":"28360040","name":"Karstädt OP","lat":53.16411,"lon":11.72827},{"mkz":"28360042","name":"Karstädt UP","lat":53.16411,"lon":11.72827},{"mkz":"28370011","name":"Neu Rohlsdorf","lat":53.10471,"lon":11.97427},{"mkz":"28370013","name":"Groß Linde OP","lat":53.11304,"lon":11.90024},{"mkz":"28370014","name":"Groß Linde UP","lat":53.11304,"lon":11.90024},{"mkz":"28370015","name":"Groß Buchholz OP","lat":53.11487,"lon":11.85944},{"mkz":"28370016","name":"Groß Buchholz MP1","lat":53.11487,"lon":11.85944},{"mkz":"28370020","name":"Gramzow","lat":53.1298,"lon":11.94358},{"mkz":"28390112","name":"Buchholz, B 103","lat":53.12705,"lon":12.17966},{"mkz":"28390113","name":"Beveringen OP","lat":53.14975,"lon":12.23342},{"mkz":"28390114","name":"Beveringen MP","lat":53.14975,"lon":12.23342},{"mkz":"28390115","name":"Beveringen UP","lat":53.14975,"lon":12.23342},{"mkz":"28390120","name":"Pritzwalk, nördl. OP","lat":53.17139,"lon":12.1758},{"mkz":"28390121","name":"Pritzwalk, nördl. MP","lat":53.17136,"lon":12.17582},{"mkz":"28390123","name":"Pritzwalk Nord OP","lat":53.17175,"lon":12.17536},{"mkz":"28390125","name":"Pritzwalk, Perleberger Str.","lat":53.14941,"lon":12.17058},{"mkz":"28400205","name":"Glienicke","lat":53.17692,"lon":12.41768},{"mkz":"28400206","name":"Maulbeerwalde, südl. Autob. OP","lat":53.16348,"lon":12.37475},{"mkz":"28400211","name":"Scharfenberg, Ortseingang","lat":53.11923,"lon":12.48702},{"mkz":"28400223","name":"Maulbeerwalde, Wasserwerk OP","lat":53.1676,"lon":12.35011},{"mkz":"28400252","name":"Maulbeerwalde, Wasserwerk MP","lat":53.1676,"lon":12.35011},{"mkz":"28400253","name":"Maulbeerwalde, Wasserwerk UP","lat":53.1676,"lon":12.35011},{"mkz":"28400254","name":"Maulbeerwalde, südl. Autob. UP","lat":53.16348,"lon":12.37475},{"mkz":"28401031","name":"Liebenthal","lat":53.14418,"lon":12.40062},{"mkz":"28401170","name":"Natteheide OP","lat":53.09865,"lon":12.42743},{"mkz":"28401180","name":"Wittstock, Papenbrucher Weg OP","lat":53.15491,"lon":12.47508},{"mkz":"28401181","name":"Wittstock, Papenbrucher Weg MP","lat":53.15491,"lon":12.47508},{"mkz":"28401182","name":"Wittstock, Papenbrucher Weg UP","lat":53.15491,"lon":12.47508},{"mkz":"28401184","name":"Wittstock, Röbeler Straße 26 OP","lat":53.16736,"lon":12.49459},{"mkz":"28401185","name":"Wittstock, Röbeler Straße 26 UP","lat":53.16736,"lon":12.49459},{"mkz":"28410213","name":"Groß-Haßlow, Kreuzung","lat":53.1726,"lon":12.57227},{"mkz":"28410218","name":"Zootzen, 2,7 km östl.","lat":53.14193,"lon":12.6309},{"mkz":"28410220","name":"Gadow","lat":53.11403,"lon":12.60435},{"mkz":"28410225","name":"Babitzer Holz MP1","lat":53.17048,"lon":12.57984},{"mkz":"28410228","name":"Babitzer Holz OP","lat":53.17048,"lon":12.57984},{"mkz":"28410230","name":"Babitzer Holz UP","lat":53.17048,"lon":12.57984},{"mkz":"28410240","name":"Schweinrich","lat":53.17386,"lon":12.63406},{"mkz":"28428204","name":"Linow, Wald","lat":53.11028,"lon":12.8296},{"mkz":"28430012","name":"Revier Stechlin, Jagen 225","lat":53.16391,"lon":12.98678},{"mkz":"28430013","name":"Revier Stechlin, Jagen 207","lat":53.15731,"lon":12.99588},{"mkz":"28430018","name":"Zeutenwiesen, nördl. Zeutensee","lat":53.11285,"lon":12.98987},{"mkz":"28430020","name":"Revier Dollgow, Jagen 45","lat":53.11473,"lon":12.9924},{"mkz":"28430021","name":"Zeutenwiesen, südl. Nehmitzsee","lat":53.1121,"lon":12.99165},{"mkz":"28430024","name":"Revier Dollgow, Jagen 52","lat":53.11801,"lon":12.9893},{"mkz":"28438014","name":"Luhme, nordwestl. Ortslage","lat":53.19308,"lon":12.83403},{"mkz":"28438060","name":"Zechlinerhütte, Kampersee","lat":53.15505,"lon":12.89591},{"mkz":"28438063","name":"Luhme, Ortsausgang","lat":53.18484,"lon":12.84738},{"mkz":"28438064","name":"Zechlinerhütte,1300 m westl.","lat":53.15168,"lon":12.84659},{"mkz":"28438066","name":"Beerenbusch, Meerkatzberg","lat":53.1521,"lon":12.93642},{"mkz":"28438100","name":"Rheinsberg, Str. nach Menz","lat":53.10314,"lon":12.92752},{"mkz":"28438101","name":"Rheinsberg, Feldstraße","lat":53.10268,"lon":12.89511},{"mkz":"28438109","name":"Feldgrieben","lat":53.12881,"lon":12.94764},{"mkz":"28438120","name":"Beerenbusch, Menzer Heide OP","lat":53.13273,"lon":12.96483},{"mkz":"28438121","name":"Beerenbusch, Menzer Heide MP","lat":53.13274,"lon":12.96477},{"mkz":"28438122","name":"Beerenbusch, Menzer Heide UP","lat":53.13274,"lon":12.96471},{"mkz":"28440001","name":"Revier Neuglobsow, Station","lat":53.14171,"lon":13.03371},{"mkz":"28440003","name":"Revier Neuglobsow, Jagen91","lat":53.13565,"lon":13.0441},{"mkz":"28440004","name":"Revier Dagow, Jagen 144/143","lat":53.16489,"lon":13.04602},{"mkz":"28440005","name":"Revier Steinförde, Jagen 56","lat":53.161,"lon":13.05773},{"mkz":"28440006","name":"Revier Steinförde, Jagen 48","lat":53.15907,"lon":13.07263},{"mkz":"28440007","name":"Revier Dagow, Jagen 121","lat":53.15875,"lon":13.09819},{"mkz":"28440008","name":"Revier Schönhorn, Jagen 83","lat":53.17376,"lon":13.03785},{"mkz":"28440010","name":"Revier Stechlin, Jagen 221/213","lat":53.16435,"lon":13.01445},{"mkz":"28440011","name":"Revier Stechlin, Jagen 211","lat":53.15937,"lon":13.01769},{"mkz":"28440014","name":"Revier Stechlin, Jagen 145","lat":53.14224,"lon":13.00391},{"mkz":"28440015","name":"Revier Stechlin, Jagen 98","lat":53.13471,"lon":13.01262},{"mkz":"28440016","name":"Revier Menz, Jagen 272","lat":53.1268,"lon":13.02327},{"mkz":"28440025","name":"Revier Dagow, Jagen 142","lat":53.15646,"lon":13.04356},{"mkz":"28440026","name":"Revier Schönhorn, Jagen 237","lat":53.17373,"lon":13.0199},{"mkz":"28440027","name":"Revier Schönhorn, Jagen 212","lat":53.16817,"lon":13.01976},{"mkz":"28440028","name":"Revier Steinförde, Jagen 57","lat":53.16608,"lon":13.05254},{"mkz":"28440029","name":"Revier Steinförde, Westufer Peetschsee","lat":53.16718,"lon":13.06064},{"mkz":"28440030","name":"Revier Dagow, Jagen 129","lat":53.15434,"lon":13.07924},{"mkz":"28440032","name":"Revier Neuglobsow, Jagen 134","lat":53.14765,"lon":13.0441},{"mkz":"28440033","name":"Revier Neuglobsow, Jagen 134","lat":53.14788,"lon":13.04283},{"mkz":"28440034","name":"Revier Dagow, Jagen 140","lat":53.16022,"lon":13.04574},{"mkz":"28440035","name":"Revier Neuglobsow, Jagen 112","lat":53.14253,"lon":13.09313},{"mkz":"28440037","name":"Revier Menz, Jagen 264","lat":53.13111,"lon":13.06108},{"mkz":"28440038","name":"Revier Neuglobsow, Jagen 75","lat":53.13651,"lon":13.04353},{"mkz":"28440040","name":"Revier Neuglobsow, Jagen 94","lat":53.14171,"lon":13.03371},{"mkz":"28440041","name":"Revier Menz, Jagen 252 UP","lat":53.12595,"lon":13.07822},{"mkz":"28440042","name":"Revier Menz, Jagen 252 OP","lat":53.12595,"lon":13.07822},{"mkz":"28440090","name":"Revier Dagow, Jagen 209 UP","lat":53.17133,"lon":13.03778},{"mkz":"28440091","name":"Revier Dagow, Jagen 209 OP1","lat":53.17133,"lon":13.03778},{"mkz":"28440092","name":"Revier Dagow, Jagen 209 OP2","lat":53.17133,"lon":13.03778},{"mkz":"28441301","name":"Fürstenberg, Bürgersee","lat":53.17015,"lon":13.12809},{"mkz":"28441303","name":"Groß Menow","lat":53.19365,"lon":13.04401},{"mkz":"28441310","name":"Fürstenberg, Schützenstraße UF","lat":53.18576,"lon":13.13986},{"mkz":"28441315","name":"Ravensbrück, 45 m nördl. Himmelpforter Landstraße","lat":53.19371,"lon":13.15991},{"mkz":"28443405","name":"Burow","lat":53.11214,"lon":13.10385},{"mkz":"28443415","name":"Menz, Friedensplatz","lat":53.10444,"lon":13.05103},{"mkz":"28452403","name":"Zootzen","lat":53.15043,"lon":13.20507},{"mkz":"28452408","name":"Himmelpfort, Zur Hasenheide","lat":53.18037,"lon":13.22615},{"mkz":"28452410","name":"Tangersdorf","lat":53.16306,"lon":13.32311},{"mkz":"28452420","name":"Dannenwalde, Buswendeschleife Gramzow","lat":53.11361,"lon":13.17203},{"mkz":"28453495","name":"Bredereiche","lat":53.12116,"lon":13.24325},{"mkz":"28463201","name":"Netzow","lat":53.16028,"lon":13.47933},{"mkz":"28463205","name":"Bandelowshof","lat":53.1406,"lon":13.47668},{"mkz":"28463233","name":"Templin MP","lat":53.12794,"lon":13.49611},{"mkz":"28463234","name":"Templin UP","lat":53.12794,"lon":13.49611},{"mkz":"28463240","name":"Alt Placht, westlicher Waldweg","lat":53.16538,"lon":13.38208},{"mkz":"28463245","name":"Gandenitz","lat":53.17458,"lon":13.44218},{"mkz":"28470002","name":"Petersdorf","lat":53.09877,"lon":13.58505},{"mkz":"28473104","name":"Kreuzkrug","lat":53.14807,"lon":13.60591},{"mkz":"28473110","name":"Petznick","lat":53.16014,"lon":13.62758},{"mkz":"28473124","name":"Luisenfelde OP","lat":53.19739,"lon":13.526},{"mkz":"28473126","name":"Luisenfelde UP","lat":53.19739,"lon":13.526},{"mkz":"28473130","name":"Mittenwalde, B109","lat":53.18505,"lon":13.66345},{"mkz":"28473135","name":"Templin - Altstadt","lat":53.12133,"lon":13.4994},{"mkz":"28473140","name":"Templin - Neustadt OP","lat":53.11453,"lon":13.50875},{"mkz":"28473141","name":"Templin - Neustadt UP","lat":53.11453,"lon":13.50875},{"mkz":"28480010","name":"Groß Fredenwalde OP","lat":53.10168,"lon":13.69292},{"mkz":"28480011","name":"Groß Fredenwalde UP","lat":53.10168,"lon":13.69292},{"mkz":"28480021","name":"Hessenhagen","lat":53.10562,"lon":13.80398},{"mkz":"28481093","name":"Gerswalde","lat":53.17299,"lon":13.76087},{"mkz":"28491008","name":"Polßen","lat":53.16293,"lon":13.98273},{"mkz":"28491016","name":"Schmiedeberg","lat":53.14986,"lon":13.96572},{"mkz":"28495022","name":"Dreiecksee","lat":53.19706,"lon":13.9364},{"mkz":"28500636","name":"Biesenbrow, Fbr","lat":53.1179,"lon":14.01511},{"mkz":"28500652","name":"Schönow","lat":53.18105,"lon":14.1399},{"mkz":"28501101","name":"Passow, Fbr.","lat":53.14263,"lon":14.11434},{"mkz":"28501105","name":"Wendemark","lat":53.1627,"lon":14.10143},{"mkz":"28501107","name":"Grünow bei Passow","lat":53.12493,"lon":14.06759},{"mkz":"28501108","name":"Wendemark","lat":53.16659,"lon":14.09551},{"mkz":"28501111","name":"Briest bei Passow","lat":53.15517,"lon":14.05733},{"mkz":"28510981","name":"Hohenselchow-Heinrichshof","lat":53.19305,"lon":14.32206},{"mkz":"28510982","name":"Hohenfelde","lat":53.17367,"lon":14.29417},{"mkz":"28510985","name":"Frostenwalde","lat":53.14839,"lon":14.28353},{"mkz":"28511201","name":"Blumenhagen, Scheune","lat":53.11685,"lon":14.29365},{"mkz":"28511204","name":"Vierraden/Wildbahn","lat":53.11986,"lon":14.30742},{"mkz":"28511207","name":"Hohenfelde, Jagen 2-9","lat":53.12267,"lon":14.3263},{"mkz":"28511210","name":"Hohenfelde, Jagen 11-18","lat":53.12898,"lon":14.32901},{"mkz":"28511229","name":"Stendell Nord","lat":53.1477,"lon":14.16547},{"mkz":"28511230","name":"Vierraden","lat":53.10327,"lon":14.31767},{"mkz":"28511231","name":"Stendell (Rangierbhf. PCK)","lat":53.12842,"lon":14.18642},{"mkz":"28511233","name":"Stendell Ausbau","lat":53.1552,"lon":14.17498},{"mkz":"28519035","name":"Vierraden, jüdischer Friedhof","lat":53.09874,"lon":14.30766},{"mkz":"28521218","name":"Hohenfelde UP, Jagen22-29unten","lat":53.13995,"lon":14.34489},{"mkz":"28521228","name":"Gartz UP, Schulzensteg unten","lat":53.15882,"lon":14.33618},{"mkz":"28521235","name":"Friedrichsthal OP","lat":53.16913,"lon":14.34234},{"mkz":"29341721","name":"Lenzen, Weg zur Fähre OP","lat":53.08401,"lon":11.46356},{"mkz":"29341722","name":"Lenzen, Weg zur Fähre UP","lat":53.08401,"lon":11.46356},{"mkz":"29350011","name":"Gandow, südwestl. Ortseing.","lat":53.07743,"lon":11.50959},{"mkz":"29350014","name":"Cumlosen, Deich","lat":53.02131,"lon":11.64308},{"mkz":"29350020","name":"Cumlosen, nordwestl. OP","lat":53.03901,"lon":11.65392},{"mkz":"29350021","name":"Cumlosen, nordwestl. MP","lat":53.03901,"lon":11.65392},{"mkz":"29350024","name":"Lenzersilge OP","lat":53.08813,"lon":11.66242},{"mkz":"29350025","name":"Lenzersilge MP1","lat":53.08813,"lon":11.66242},{"mkz":"29350026","name":"Lenzersilge MP2","lat":53.08813,"lon":11.66242},{"mkz":"29350027","name":"Lenzersilge UP","lat":53.08813,"lon":11.66242},{"mkz":"29360006","name":"Wittenberge, Rathaus","lat":52.9986,"lon":11.74847},{"mkz":"29360016","name":"Bentwisch, ca. 400 m südlich","lat":53.03341,"lon":11.72855},{"mkz":"29360017","name":"Wittenberge Nord","lat":53.0309,"lon":11.75497},{"mkz":"29370007","name":"Perleberg, Rathaus UF","lat":53.07686,"lon":11.86222},{"mkz":"29370009","name":"Rambow, Acker","lat":53.03801,"lon":11.99377},{"mkz":"29370010","name":"Uenze, nördl. d. Ortslage","lat":53.03928,"lon":11.91997},{"mkz":"29370011","name":"Düpow, an der Kirche","lat":53.0615,"lon":11.89697},{"mkz":"29370020","name":"Perleberg, Wittenberger Straße","lat":53.06946,"lon":11.84823},{"mkz":"29370030","name":"Spiegelhagen","lat":53.08189,"lon":11.88469},{"mkz":"29380005","name":"Groß Woltersdorf","lat":53.08349,"lon":12.15541},{"mkz":"29391201","name":"Brüsenhagen UP","lat":53.04144,"lon":12.31044},{"mkz":"29391202","name":"Brüsenhagen OP","lat":53.04145,"lon":12.31047},{"mkz":"29391203","name":"Brüsenhagen MP","lat":53.04145,"lon":12.31047},{"mkz":"29400520","name":"Blumenthal","lat":53.08371,"lon":12.34425},{"mkz":"29400544","name":"Bork, Wasserwerk","lat":53.02117,"lon":12.4258},{"mkz":"29400562","name":"Karnzow, Weg Wulkow-Bork","lat":53.00336,"lon":12.4602},{"mkz":"29410540","name":"Teetz, 50 m südl.","lat":53.01331,"lon":12.50386},{"mkz":"29410630","name":"Fretzdorf, 700 m nördlich","lat":53.0753,"lon":12.54935},{"mkz":"29410640","name":"Rägelin","lat":53.01616,"lon":12.64127},{"mkz":"29410650","name":"Darsikow","lat":53.01769,"lon":12.58915},{"mkz":"29428205","name":"Linow, Feldweg","lat":53.09606,"lon":12.82668},{"mkz":"29428240","name":"Gühlen-Glienicke","lat":53.04155,"lon":12.7222},{"mkz":"29428250","name":"Basdorf","lat":53.08964,"lon":12.72819},{"mkz":"29428260","name":"Frankendorf","lat":53.01894,"lon":12.70377},{"mkz":"29438110","name":"Rheinsberg, Rosenplan","lat":53.09464,"lon":12.88837},{"mkz":"29438300","name":"Schwanow, Am Feuerwehrhaus","lat":53.04297,"lon":12.85875},{"mkz":"29438310","name":"Zippelsförde, Rägelsdorf","lat":53.00705,"lon":12.89613},{"mkz":"29438430","name":"Heinrichsdorf, Dorfstr., Fl","lat":53.04532,"lon":12.95603},{"mkz":"29438509","name":"Heinrichsdorf Nord","lat":53.04985,"lon":12.96241},{"mkz":"29443515","name":"Groß Woltersdorf, Seilershof","lat":53.0877,"lon":13.1367},{"mkz":"29443540","name":"Sonnenberg","lat":53.01844,"lon":13.08469},{"mkz":"29443675","name":"Gransee, Klosterstraße","lat":53.00929,"lon":13.15688},{"mkz":"29443680","name":"Gransee OP","lat":53.01019,"lon":13.14168},{"mkz":"29443681","name":"Gransee MP1","lat":53.01019,"lon":13.14168},{"mkz":"29443682","name":"Gransee MP2","lat":53.01019,"lon":13.14168},{"mkz":"29443683","name":"Gransee UP","lat":53.01019,"lon":13.14168},{"mkz":"29453525","name":"Wentow OP","lat":53.05233,"lon":13.23504},{"mkz":"29453530","name":"Tornow, OT Neubau","lat":53.07542,"lon":13.23552},{"mkz":"29453660","name":"Altlüdersdorf","lat":53.03788,"lon":13.18788},{"mkz":"29453690","name":"Ribbeck","lat":53.03188,"lon":13.25524},{"mkz":"29463220","name":"Hammelspring","lat":53.07564,"lon":13.4328},{"mkz":"29463383","name":"Zehdenick, Nord UP","lat":53.01199,"lon":13.35237},{"mkz":"29463384","name":"Zehdenick, Nord OP","lat":53.01199,"lon":13.35237},{"mkz":"29463385","name":"Zehdenick, Nord MP","lat":53.01199,"lon":13.35237},{"mkz":"29463890","name":"Zehdenick-Vogelsang OP","lat":53.03704,"lon":13.39892},{"mkz":"29463891","name":"Zehdenick-Vogelsang MP1","lat":53.03704,"lon":13.39892},{"mkz":"29463892","name":"Zehdenick-Vogelsang MP2","lat":53.03704,"lon":13.39892},{"mkz":"29470010","name":"Vietmannsdorf, Haus Nr.7","lat":53.05305,"lon":13.52687},{"mkz":"29470030","name":"Götschendorf, Kieswerk OP","lat":53.08862,"lon":13.62814},{"mkz":"29472968","name":"Groß Dölln,ca.2km SW Großväter","lat":52.99834,"lon":13.52844},{"mkz":"29472981","name":"Reiersdorf,1km NE FH Döllnkrug","lat":53.00977,"lon":13.60679},{"mkz":"29481334","name":"Poratz OP","lat":53.06607,"lon":13.79125},{"mkz":"29481335","name":"Poratz UP","lat":53.06609,"lon":13.79125},{"mkz":"29481337","name":"Ahlimbswalde","lat":53.04833,"lon":13.72194},{"mkz":"29483281","name":"Friedrichswalde, ca.2,5 km westl.","lat":53.02871,"lon":13.66771},{"mkz":"29484282","name":"Ringenwalde, Julianenhof","lat":53.06198,"lon":13.67041},{"mkz":"29490617","name":"Sternfelde","lat":53.00963,"lon":13.97015},{"mkz":"29490626","name":"Görlsdorf, Blumberger Mühle","lat":53.037,"lon":13.93934},{"mkz":"29490630","name":"Görlsdorf OP","lat":53.05471,"lon":13.96123},{"mkz":"29490631","name":"Görlsdorf UP","lat":53.0547,"lon":13.96126},{"mkz":"29490632","name":"Görlsdorf OP","lat":53.04828,"lon":13.95615},{"mkz":"29490633","name":"Görlsdorf UP","lat":53.04829,"lon":13.95616},{"mkz":"29490634","name":"Görlsdorf","lat":53.04568,"lon":13.96078},{"mkz":"29491338","name":"Kerkow","lat":53.03856,"lon":13.98709},{"mkz":"29499502","name":"Wolletz","lat":53.02569,"lon":13.88681},{"mkz":"29499503","name":"Wolletz","lat":53.02901,"lon":13.91853},{"mkz":"29501403","name":"Angermünde,Klosterstraße 14","lat":53.01588,"lon":14.0021},{"mkz":"29501404","name":"Pinnow, OP","lat":53.05234,"lon":14.08123},{"mkz":"29501405","name":"Pinnow, UP","lat":53.0523,"lon":14.08121},{"mkz":"29510149","name":"Vierraden (Str.Brunnengalerie)","lat":53.09499,"lon":14.30914},{"mkz":"29510657","name":"Vierraden","lat":53.09112,"lon":14.32303},{"mkz":"29510999","name":"Schwedt, Monplaisir","lat":53.07049,"lon":14.27308},{"mkz":"29519002","name":"Schwedt, AWU","lat":53.081,"lon":14.30729},{"mkz":"29519012","name":"Schwedt, Berliner Allee","lat":53.05067,"lon":14.27267},{"mkz":"29519013","name":"Schwedt, Werner-Seelenbinder-Straße","lat":53.07131,"lon":14.25281},{"mkz":"29519017","name":"Meyenburg","lat":53.04026,"lon":14.25538},{"mkz":"29519020","name":"Meyenburg UP","lat":53.05304,"lon":14.24549},{"mkz":"29519021","name":"Meyenburg OP","lat":53.0521,"lon":14.22751},{"mkz":"29519023","name":"Zützen, Apfelallee","lat":53.0326,"lon":14.22764},{"mkz":"29519024","name":"Schwedt, Vierradener Chaussee","lat":53.0748,"lon":14.28457},{"mkz":"29519026","name":"Vierraden,eh. Lindenhof","lat":53.09175,"lon":14.29449},{"mkz":"29519029","name":"Schwedt, Clara-Zetkin-Straße","lat":53.05445,"lon":14.28096},{"mkz":"29519030","name":"Schw.,Krzg.Teichm.-Seelenb.str","lat":53.0634,"lon":14.27304},{"mkz":"29519040","name":"Schwedt, Kraftverkehr","lat":53.06567,"lon":14.29295},{"mkz":"29519042","name":"Schwedt, Kastanienallee B2","lat":53.0648,"lon":14.2374},{"mkz":"29519045","name":"Schwedt, Kastanienallee B5","lat":53.05936,"lon":14.25466},{"mkz":"29519047","name":"Criewen","lat":53.02037,"lon":14.23138},{"mkz":"30360009","name":"Hinzdorf, OT Schadebeuster","lat":52.96298,"lon":11.80417},{"mkz":"30360010","name":"Hinzdorf-Zwischendeich","lat":52.96924,"lon":11.80382},{"mkz":"30360020","name":"Wittenberge, Brahmhorst","lat":52.98669,"lon":11.69551},{"mkz":"30360035","name":"Hinzdorf,Zwischend., südl.","lat":52.96741,"lon":11.79933},{"mkz":"30360036","name":"Hinzdorf, Abzw. n. Zwisch.","lat":52.97272,"lon":11.8112},{"mkz":"30360037","name":"Groß Breese, Koppel","lat":52.99447,"lon":11.80861},{"mkz":"30370021","name":"Rühstädt, Gut","lat":52.91697,"lon":11.86502},{"mkz":"30370039","name":"Karthan OP","lat":52.99384,"lon":11.94003},{"mkz":"30370040","name":"Karthan UP","lat":52.99384,"lon":11.94003},{"mkz":"30370041","name":"Rühstädt, Roggbergstraße OP","lat":52.92324,"lon":11.87445},{"mkz":"30370046","name":"Groß Lüben","lat":52.97065,"lon":11.9259},{"mkz":"30370047","name":"Siegrön, Brücke Cederbach OP","lat":52.98202,"lon":11.96435},{"mkz":"30370048","name":"Siegrön, Brücke Cederbach UP","lat":52.98202,"lon":11.96435},{"mkz":"30370060","name":"Bälow, Trafohaus","lat":52.93995,"lon":11.8646},{"mkz":"30380002","name":"Roddan, Weg n. Plattenburg","lat":52.92332,"lon":12.00705},{"mkz":"30380004","name":"Roddan, Bahn","lat":52.9316,"lon":12.01673},{"mkz":"30380005","name":"Glöwen","lat":52.91507,"lon":12.08448},{"mkz":"30390001","name":"Schönhagen","lat":52.97858,"lon":12.18456},{"mkz":"30390003","name":"Barenthin OP","lat":52.92361,"lon":12.23998},{"mkz":"30390004","name":"Barenthin UP","lat":52.92361,"lon":12.23998},{"mkz":"30390010","name":"Gumtow, Weg nach Heinzhof","lat":52.98434,"lon":12.26196},{"mkz":"30400558","name":"Karnzow, 1,5 km nördl","lat":52.99821,"lon":12.44007},{"mkz":"30400566","name":"Drewen, nördl. alte Deponie","lat":52.99098,"lon":12.42408},{"mkz":"30400574","name":"Drewen, Weg Stolpe-Teetz","lat":52.97939,"lon":12.44956},{"mkz":"30400580","name":"Stolpe, Roteichen","lat":52.97247,"lon":12.42597},{"mkz":"30400591","name":"Stolpe, Birkenallee","lat":52.9715,"lon":12.44427},{"mkz":"30400670","name":"Bantikow","lat":52.93144,"lon":12.48655},{"mkz":"30401381","name":"Kyritz, Feuerwache, FL","lat":52.94275,"lon":12.39252},{"mkz":"30401382","name":"Kyritz, Königsfließ","lat":52.9567,"lon":12.36059},{"mkz":"30401383","name":"Kyritz, Feuerwache UF","lat":52.94295,"lon":12.39291},{"mkz":"30410630","name":"Tornow, Weg n. Schönberg","lat":52.96226,"lon":12.50772},{"mkz":"30410700","name":"Lögow","lat":52.91281,"lon":12.58135},{"mkz":"30410800","name":"Katerbow, Weg nach Walsleben","lat":52.97524,"lon":12.6492},{"mkz":"30410900","name":"Brunn","lat":52.91497,"lon":12.51416},{"mkz":"30429033","name":"Storbeck Nord OP","lat":52.98001,"lon":12.753},{"mkz":"30429034","name":"Storbeck Nord UP","lat":52.98001,"lon":12.753},{"mkz":"30429043","name":"Alt Ruppin, Queste OP","lat":52.966,"lon":12.82802},{"mkz":"30429044","name":"Alt Ruppin, Queste MP","lat":52.966,"lon":12.82802},{"mkz":"30429045","name":"Alt Ruppin, Queste UP","lat":52.966,"lon":12.82802},{"mkz":"30429065","name":"Neuruppin, Einf. Rieself. OP","lat":52.94806,"lon":12.81228},{"mkz":"30429066","name":"Neuruppin, Einf. Rieself. MP1","lat":52.94806,"lon":12.81228},{"mkz":"30429067","name":"Neuruppin, Einf. Rieself. MP2","lat":52.94806,"lon":12.81228},{"mkz":"30429068","name":"Neuruppin, Einf. Rieself. UP","lat":52.94806,"lon":12.81228},{"mkz":"30429666","name":"Neuruppin, am Klappgraben OP","lat":52.93341,"lon":12.78455},{"mkz":"30429700","name":"Darritz OP","lat":52.94579,"lon":12.70772},{"mkz":"30429701","name":"Darritz UP","lat":52.94579,"lon":12.70772},{"mkz":"30429750","name":"Neuruppin, Amtsgericht","lat":52.92737,"lon":12.80763},{"mkz":"30438393","name":"Alt Ruppin, Roofwinkel OP","lat":52.94834,"lon":12.86474},{"mkz":"30438394","name":"Alt Ruppin, Roofwinkel MP","lat":52.94834,"lon":12.86474},{"mkz":"30438395","name":"Alt Ruppin, Roofwinkel UP","lat":52.94834,"lon":12.86474},{"mkz":"30438402","name":"Altruppin, Gildenhall OP","lat":52.93891,"lon":12.83876},{"mkz":"30438404","name":"Altruppin, Gildenhall UP","lat":52.93891,"lon":12.83876},{"mkz":"30438410","name":"Krangen, Radweg nach Zippelsförde OP","lat":52.9833,"lon":12.86766},{"mkz":"30438511","name":"Lindow, Am Bahndamm","lat":52.96712,"lon":12.98262},{"mkz":"30438520","name":"Schönberg (Mark)","lat":52.93314,"lon":12.97196},{"mkz":"30448500","name":"Großmutz, Zum Beetz","lat":52.93051,"lon":13.11652},{"mkz":"30448600","name":"Meseberg","lat":52.96905,"lon":13.09843},{"mkz":"30448610","name":"Strubensee, Wutzsee","lat":52.96465,"lon":13.03313},{"mkz":"30448615","name":"Glambeck","lat":52.93911,"lon":13.05133},{"mkz":"30453790","name":"Zehdenick, Breitscheid-Str.","lat":52.97607,"lon":13.3269},{"mkz":"30453795","name":"Klein Mutz bei Zehdenick","lat":52.95893,"lon":13.28605},{"mkz":"30453805","name":"Neulöwenberg","lat":52.90838,"lon":13.21014},{"mkz":"30453820","name":"Häsen, Weg nach Klein Mutz","lat":52.95113,"lon":13.23663},{"mkz":"30454311","name":"Falkenthal, Breite Straße","lat":52.90134,"lon":13.2981},{"mkz":"30460968","name":"Groß Schönebeck-Schluft OP","lat":52.92804,"lon":13.49623},{"mkz":"30460969","name":"Groß Schönebeck-Schluft UP","lat":52.92804,"lon":13.49623},{"mkz":"30461768","name":"Kappe, Bullenwiesen","lat":52.96524,"lon":13.45316},{"mkz":"30463568","name":"Liebenthal, ca. 2 km westl. OP","lat":52.91611,"lon":13.42863},{"mkz":"30463569","name":"Liebenthal, ca. 2 km westl. UP","lat":52.91611,"lon":13.42863},{"mkz":"30463791","name":"Zehdenick, Friedhof","lat":52.97351,"lon":13.33267},{"mkz":"30464252","name":"Krewelin, Ortsausgang","lat":52.94297,"lon":13.38473},{"mkz":"30470030","name":"Groß Schönebeck, West OP","lat":52.904,"lon":13.521},{"mkz":"30470031","name":"Groß Schönebeck, West UP","lat":52.904,"lon":13.521},{"mkz":"30470368","name":"Groß Schönebeck, FH Hirschb. OP","lat":52.93456,"lon":13.55253},{"mkz":"30470369","name":"Groß Schönebeck, FH Hirschb. UP","lat":52.93456,"lon":13.55253},{"mkz":"30470581","name":"Groß Schönebeck,SW Hubertusstock","lat":52.91849,"lon":13.64743},{"mkz":"30471179","name":"Groß Schönebeck,NE Suppenbruch","lat":52.94869,"lon":13.6489},{"mkz":"30472268","name":"Gr.Schönebeck,östl.Gr.-Glas.-S","lat":52.95745,"lon":13.52176},{"mkz":"30473068","name":"Groß Schönebeck, Schwabensluch","lat":52.96992,"lon":13.58023},{"mkz":"30476001","name":"Kienhorst OP","lat":52.974,"lon":13.64556},{"mkz":"30476003","name":"Kienhorst UP","lat":52.974,"lon":13.64568},{"mkz":"30480596","name":"Altenhof","lat":52.92031,"lon":13.72911},{"mkz":"30480881","name":"Joachimsthal,ca.2 km südwestl.","lat":52.96308,"lon":13.71192},{"mkz":"30481528","name":"Joachimsthal, Forst, OP","lat":52.99215,"lon":13.69711},{"mkz":"30481529","name":"Joachimsthal, Forst, UP","lat":52.99215,"lon":13.69713},{"mkz":"30491504","name":"Herzsprung","lat":52.97652,"lon":13.9811},{"mkz":"30491505","name":"Herzsprung OP","lat":52.96458,"lon":13.98588},{"mkz":"30491506","name":"Herzsprung MP","lat":52.96458,"lon":13.98588},{"mkz":"30491508","name":"Herzsprung UP","lat":52.96458,"lon":13.98588},{"mkz":"30491509","name":"Herzsprung","lat":52.96607,"lon":13.98545},{"mkz":"30491510","name":"Herzsprung OP","lat":52.96754,"lon":13.985},{"mkz":"30491511","name":"Herzsprung UP","lat":52.96754,"lon":13.985},{"mkz":"30491512","name":"Herzsprung","lat":52.96772,"lon":13.98488},{"mkz":"30491513","name":"Herzsprung OP","lat":52.96976,"lon":13.98292},{"mkz":"30491514","name":"Herzsprung UP","lat":52.96976,"lon":13.98292},{"mkz":"30491527","name":"Serwest","lat":52.93106,"lon":13.93758},{"mkz":"30491532","name":"Senftenhütte, OP","lat":52.93471,"lon":13.86498},{"mkz":"30491533","name":"Senftenhütte, UP","lat":52.9347,"lon":13.86492},{"mkz":"30500621","name":"Lunow Süd","lat":52.91456,"lon":14.11767},{"mkz":"30509090","name":"Stolpe-OP","lat":52.97604,"lon":14.11469},{"mkz":"30509092","name":"Stolpe","lat":52.96223,"lon":14.11326},{"mkz":"30509093","name":"Crussow OP","lat":52.9929,"lon":14.09858},{"mkz":"31391523","name":"Breddin","lat":52.86608,"lon":12.22685},{"mkz":"31391541","name":"Damelack Ost","lat":52.88827,"lon":12.18135},{"mkz":"31391622","name":"Lohm","lat":52.85243,"lon":12.31053},{"mkz":"31391801","name":"Babe","lat":52.81791,"lon":12.31259},{"mkz":"31400780","name":"Wusterhausen, Bahnlinie","lat":52.87432,"lon":12.45131},{"mkz":"31400785","name":"Wusterhausen, Wiesengrund","lat":52.88327,"lon":12.46536},{"mkz":"31400820","name":"Zernitz, Bahnhof","lat":52.89455,"lon":12.34318},{"mkz":"31400830","name":"Neustadt, Birkenweg","lat":52.85445,"lon":12.43313},{"mkz":"31401603","name":"Sieversdorf, Weg nach Goldbeck","lat":52.83228,"lon":12.3839},{"mkz":"31401621","name":"Koppenbrück","lat":52.84677,"lon":12.34427},{"mkz":"31409918","name":"Dreetz, Waldeck","lat":52.819,"lon":12.46838},{"mkz":"31410787","name":"Ganzer, B167 OP","lat":52.8769,"lon":12.54859},{"mkz":"31410788","name":"Ganzer, B167 UP","lat":52.8769,"lon":12.54859},{"mkz":"31419708","name":"Nackel, Rohrlacker Weg OP","lat":52.82688,"lon":12.57765},{"mkz":"31419709","name":"Nackel, Rohrlacker Weg UP","lat":52.82688,"lon":12.57765},{"mkz":"31419710","name":"Wildberg, Heiningenberg OP","lat":52.86561,"lon":12.61523},{"mkz":"31419712","name":"Wildberg, Heiningenberg UP","lat":52.86561,"lon":12.61523},{"mkz":"31419861","name":"Segeletz","lat":52.81375,"lon":12.52186},{"mkz":"31429400","name":"Langen","lat":52.83156,"lon":12.80474},{"mkz":"31429402","name":"Tarmow, Weg zum Badesee","lat":52.80196,"lon":12.79856},{"mkz":"31429501","name":"Fehrbellin, Mescheweg OP","lat":52.81182,"lon":12.72828},{"mkz":"31429505","name":"Fehrbellin, Mescheweg UP","lat":52.81182,"lon":12.72828},{"mkz":"31429506","name":"Fehrbellin, Lentzker Mühle OP","lat":52.80906,"lon":12.71908},{"mkz":"31429507","name":"Fehrbellin, Lentzker Mühle UP","lat":52.80906,"lon":12.71908},{"mkz":"31429731","name":"Stöffin, Sportplatz","lat":52.87439,"lon":12.74402},{"mkz":"31429740","name":"Walchow, Stöffiner Weg","lat":52.84773,"lon":12.75527},{"mkz":"31429757","name":"Manker, Dorfstraße 58","lat":52.84531,"lon":12.67459},{"mkz":"31439116","name":"Radensleben","lat":52.87982,"lon":12.93827},{"mkz":"31439300","name":"Papstthum","lat":52.84262,"lon":12.92651},{"mkz":"31439400","name":"Ziethenhorst Nordost","lat":52.80773,"lon":12.89711},{"mkz":"31445100","name":"Löwenberg OP","lat":52.88632,"lon":13.15727},{"mkz":"31445101","name":"Löwenberg UP","lat":52.88632,"lon":13.15727},{"mkz":"31445102","name":"Linde, Forsthaus Kerkow OP","lat":52.87175,"lon":13.12273},{"mkz":"31445103","name":"Linde, Forsthaus Kerkow MP","lat":52.87175,"lon":13.12273},{"mkz":"31445104","name":"Linde, Forsthaus Kerkow UP","lat":52.87175,"lon":13.12273},{"mkz":"31445105","name":"Linde, Friedhof","lat":52.89274,"lon":13.12309},{"mkz":"31445115","name":"Beetz","lat":52.82296,"lon":13.05065},{"mkz":"31449104","name":"Ludwigsaue","lat":52.82819,"lon":13.00753},{"mkz":"31449105","name":"Rüthnick, Plantage","lat":52.87394,"lon":13.00215},{"mkz":"31449107","name":"Rüthnick, Bundesforst OP","lat":52.87056,"lon":13.02174},{"mkz":"31449108","name":"Rüthnick, Bundesforst MP2","lat":52.87056,"lon":13.02174},{"mkz":"31449109","name":"Rüthnick, Bundesforst MP1","lat":52.87056,"lon":13.02174},{"mkz":"31449110","name":"Rüthnick, Bundesforst UP","lat":52.87056,"lon":13.02174},{"mkz":"31449210","name":"Beetz OP","lat":52.8145,"lon":12.99992},{"mkz":"31449211","name":"Beetz UP","lat":52.8145,"lon":12.99992},{"mkz":"31449212","name":"Sommerfeld, Neuendorfer Weg","lat":52.80594,"lon":13.0653},{"mkz":"31449220","name":"Neuendorf, Schleuener Weg","lat":52.83002,"lon":13.11885},{"mkz":"31454608","name":"Neuholland, Büdnerhaus","lat":52.83376,"lon":13.3019},{"mkz":"31454653","name":"Neu Friedrichsthal","lat":52.79983,"lon":13.26044},{"mkz":"31455202","name":"Teschendorf, Kurve","lat":52.84255,"lon":13.19534},{"mkz":"31455260","name":"Nassenheide","lat":52.82332,"lon":13.21463},{"mkz":"31464501","name":"Liebenwalde, Sandberge","lat":52.85684,"lon":13.40756},{"mkz":"31464518","name":"Liebenwalde, Liebenth. Weg OP","lat":52.89045,"lon":13.41054},{"mkz":"31464520","name":"Liebenwalde, Liebenth. Weg UP","lat":52.89045,"lon":13.41054},{"mkz":"31464604","name":"Rehmate OP","lat":52.80622,"lon":13.42012},{"mkz":"31464605","name":"Rehmate MP1","lat":52.80624,"lon":13.42016},{"mkz":"31464607","name":"Rehmate UP","lat":52.80624,"lon":13.42016},{"mkz":"31464630","name":"Kreuzbruch","lat":52.82327,"lon":13.40684},{"mkz":"31464655","name":"Bernöwe, Ortsausgang","lat":52.81628,"lon":13.34082},{"mkz":"31464700","name":"Neuholland","lat":52.87379,"lon":13.34069},{"mkz":"31464705","name":"Böhmerheide OP","lat":52.88477,"lon":13.49354},{"mkz":"31464706","name":"Böhmerheide UP","lat":52.88477,"lon":13.49354},{"mkz":"31471802","name":"Marienwerder","lat":52.84147,"lon":13.59478},{"mkz":"31471805","name":"Marienwerder OP","lat":52.84872,"lon":13.60962},{"mkz":"31471806","name":"Marienwerder UP","lat":52.84872,"lon":13.60956},{"mkz":"31471807","name":"Ruhlsdorf OP","lat":52.8276,"lon":13.59219},{"mkz":"31471808","name":"Ruhlsdorf UP","lat":52.8276,"lon":13.59219},{"mkz":"31471810","name":"Ruhlsdorf, 6b/59","lat":52.8325,"lon":13.5871},{"mkz":"31471812","name":"Sophienstädt OP","lat":52.80693,"lon":13.59145},{"mkz":"31471813","name":"Sophienstädt UP","lat":52.80693,"lon":13.59145},{"mkz":"31471816","name":"Klandorf OP","lat":52.87875,"lon":13.56803},{"mkz":"31471817","name":"Klandorf UP","lat":52.87875,"lon":13.56803},{"mkz":"31471818","name":"Klandorf Ost OP","lat":52.87389,"lon":13.59175},{"mkz":"31471819","name":"Klandorf Ost UP","lat":52.87389,"lon":13.59175},{"mkz":"31471820","name":"Finowfurt, Autobahnmeisterei OP","lat":52.8518,"lon":13.6624},{"mkz":"31471821","name":"Finowfurt, Autobahnmeisterei UP","lat":52.85183,"lon":13.66239},{"mkz":"31474500","name":"Zerpenschleuse","lat":52.86706,"lon":13.50743},{"mkz":"31480594","name":"Lichterfelde","lat":52.85797,"lon":13.78261},{"mkz":"31481014","name":"Eberswalde, Marien-/Bollwerkstraße","lat":52.8363,"lon":13.82511},{"mkz":"31481070","name":"Eberswalde, Hausberg 2, P 1070","lat":52.83232,"lon":13.8265},{"mkz":"31481174","name":"Eberswalde, VPKA, P 1174, Ammonpark","lat":52.83207,"lon":13.81753},{"mkz":"31481186","name":"Eberswalde, Ossietzkystraße, P 1186","lat":52.83015,"lon":13.81861},{"mkz":"31481901","name":"Lichterfelde","lat":52.86778,"lon":13.72911},{"mkz":"31481902","name":"Finow, am Kanalweg","lat":52.858,"lon":13.73084},{"mkz":"31481904","name":"Finow, Schwanenteich","lat":52.84048,"lon":13.72884},{"mkz":"31481905","name":"Finow, Erich-Weinert-Straße","lat":52.83715,"lon":13.7279},{"mkz":"31481906","name":"Finowfurt, WSA OP","lat":52.85848,"lon":13.68304},{"mkz":"31481907","name":"Finowfurt, WSA UP","lat":52.85851,"lon":13.68306},{"mkz":"31481908","name":"Eberswalde, Clara-Zetkin-Siedlung OP","lat":52.8595,"lon":13.72625},{"mkz":"31481912","name":"Finow, HyEb 1/62 UP","lat":52.83194,"lon":13.72382},{"mkz":"31481914","name":"Eberswalde, Clara-Zetkin-Siedlung MP","lat":52.8595,"lon":13.72625},{"mkz":"31481915","name":"Eberswalde, Clars-Zetkin-Siedlung UP","lat":52.8595,"lon":13.72625},{"mkz":"31481916","name":"Spechthausen, HyEb 3/61","lat":52.814,"lon":13.75042},{"mkz":"31481920","name":"Britz, HyEb 14/75 MP","lat":52.88423,"lon":13.81485},{"mkz":"31481921","name":"Britz, Oderberger Str.10/75 OP","lat":52.87094,"lon":13.82646},{"mkz":"31481922","name":"Ebersw., Hochbaumeisterei/Lidl","lat":52.83433,"lon":13.79498},{"mkz":"31481923","name":"Eberswalde,Schillertreppe","lat":52.82837,"lon":13.81836},{"mkz":"31481924","name":"Eberswalde,SVKE","lat":52.8867,"lon":13.82568},{"mkz":"31481925","name":"Werbellin, Nachtwächtersteig","lat":52.89135,"lon":13.70136},{"mkz":"31481927","name":"Eberswalde, Nagelstraße","lat":52.83274,"lon":13.82392},{"mkz":"31481928","name":"Eberswalde, Kirchstraße, Pfarrergrund","lat":52.8315,"lon":13.82035},{"mkz":"31481929","name":"Eberswalde, Friedrich-Ebert-Straße, B 34","lat":52.83344,"lon":13.81953},{"mkz":"31481930","name":"Eberswalde, Kreuzstraße, Rathaus, P 18","lat":52.83417,"lon":13.82178},{"mkz":"31481931","name":"Eberswalde, Denkmal Synagoge","lat":52.83132,"lon":13.81843},{"mkz":"31481932","name":"Trampe, Forst","lat":52.80777,"lon":13.82162},{"mkz":"31481933","name":"Eberswalde, Heinrich-Heine-Straße","lat":52.82799,"lon":13.82457},{"mkz":"31481962","name":"Schönholz, OP","lat":52.80595,"lon":13.75181},{"mkz":"31481963","name":"Schönholz, UP","lat":52.80595,"lon":13.75181},{"mkz":"31481993","name":"Eberswalde-Finow OP","lat":52.8188,"lon":13.7122},{"mkz":"31481994","name":"Eberswalde-Finow MP","lat":52.8188,"lon":13.7122},{"mkz":"31481995","name":"Eberswalde-Finow UP","lat":52.8188,"lon":13.7122},{"mkz":"31490600","name":"Neuehütte","lat":52.86202,"lon":13.87129},{"mkz":"31491980","name":"Sandkrug HyFiw 30/70","lat":52.86815,"lon":13.8676},{"mkz":"31491981","name":"Sandkrug OP","lat":52.8845,"lon":13.8813},{"mkz":"31491982","name":"Sandkrug MP","lat":52.88452,"lon":13.8813},{"mkz":"31491988","name":"Sandkrug MP1, OHK","lat":52.85816,"lon":13.91718},{"mkz":"31491989","name":"Sandkrug MP2, OHK","lat":52.85816,"lon":13.91718},{"mkz":"31491991","name":"Falkenberg, Bushaltestelle","lat":52.8091,"lon":13.95125},{"mkz":"31491992","name":"Hohenfinow-Struwenberg","lat":52.8279,"lon":13.94087},{"mkz":"31500622","name":"Hohensaaten","lat":52.87582,"lon":14.14279},{"mkz":"31500975","name":"Hohenwutzen","lat":52.84549,"lon":14.12031},{"mkz":"31502019","name":"Hohenwutzen,Kiga, WW-Gelände","lat":52.83996,"lon":14.11131},{"mkz":"31502021","name":"Bralitz, KSP Nr. 3","lat":52.82817,"lon":14.00764},{"mkz":"31502022","name":"Wendtshof KSP Nr. 8","lat":52.80662,"lon":14.01064},{"mkz":"31502025","name":"Herrenwiese,  KSP 16","lat":52.80034,"lon":14.10015},{"mkz":"31502026","name":"Neuglietzen","lat":52.82278,"lon":14.1231},{"mkz":"31502029","name":"Hohensaatener Polder","lat":52.85679,"lon":14.12958},{"mkz":"31502031","name":"Hohensaatener Polder","lat":52.86942,"lon":14.10007},{"mkz":"31502033","name":"Hohensaatener Polder","lat":52.86225,"lon":14.06146},{"mkz":"31502035","name":"Hohensaatener Polder","lat":52.86387,"lon":14.13916},{"mkz":"31502036","name":"Hohenwutzen, Neubhrg.","lat":52.83638,"lon":14.11643},{"mkz":"31502037","name":"Hohenwutzen","lat":52.82128,"lon":14.15709},{"mkz":"31502039","name":"Gabow, KSP 12","lat":52.81578,"lon":14.07843},{"mkz":"31502044","name":"Hohensaatener Polder","lat":52.85177,"lon":14.09845},{"mkz":"31502045","name":"Hohensaatener Polder","lat":52.85194,"lon":14.07438},{"mkz":"31502053","name":"Oderberg","lat":52.8514,"lon":14.03365},{"mkz":"31502055","name":"Oderberg (k.Trasse Alte Oder)","lat":52.8577,"lon":14.03691},{"mkz":"31502059","name":"Neu-Tornow","lat":52.80465,"lon":14.07715},{"mkz":"31502069","name":"Neuranft","lat":52.8106,"lon":14.1368},{"mkz":"31502075","name":"Oderberg, Schmidtstraße, KSP 2","lat":52.8614,"lon":14.04679},{"mkz":"31502091","name":"Hohenwutzen, Friedhof","lat":52.84466,"lon":14.11225},{"mkz":"31506005","name":"Hohensaaten, Schleuse, Nr.5","lat":52.8779,"lon":14.1492},{"mkz":"31509214","name":"Tr. Hohensaaten Süd, Rohr IV","lat":52.85412,"lon":14.12728},{"mkz":"31509215","name":"Tr. Hohensaaten Süd, Rohr V","lat":52.85421,"lon":14.12706},{"mkz":"31509218","name":"Tr. Hohensaaten Süd, Rohr VIII","lat":52.85457,"lon":14.12623},{"mkz":"31510212","name":"Zäckericker-Loose, Neub., KSP Nr. 22","lat":52.81174,"lon":14.21846},{"mkz":"31512060","name":"Neurüdnitz","lat":52.8183,"lon":14.18335},{"mkz":"31512062","name":"Neurüdnitz, Bienenwerder","lat":52.79914,"lon":14.20965},{"mkz":"31512063","name":"Zäckericker Loose, Neub.","lat":52.8129,"lon":14.21937},{"mkz":"31519235","name":"Tr.Neurüdnitz Ost, Rohr V OP","lat":52.8188,"lon":14.1834},{"mkz":"31519236","name":"Tr.Neurüdnitz Ost, Rohr VI UP","lat":52.8188,"lon":14.1834},{"mkz":"31519237","name":"Tr.Neurüdnitz Ost, Rohr VII","lat":52.8185,"lon":14.1833},{"mkz":"32392310","name":"Spaatz Ost","lat":52.70588,"lon":12.32724},{"mkz":"32392350","name":"Gülpe, nahe Feldscheune OP","lat":52.72191,"lon":12.24147},{"mkz":"32392351","name":"Gülpe, nahe Feldscheune UP","lat":52.72191,"lon":12.24147},{"mkz":"32399974","name":"Kietz, L17","lat":52.75763,"lon":12.3103},{"mkz":"32399982","name":"Strodehne Nord am Deich","lat":52.77147,"lon":12.23521},{"mkz":"32409915","name":"Giesenhorst, Klessener Straße","lat":52.75793,"lon":12.45681},{"mkz":"32409932","name":"Rhinow, Sportplatz MP","lat":52.74093,"lon":12.3328},{"mkz":"32409933","name":"Rhinow, Sportplatz UP","lat":52.74093,"lon":12.3328},{"mkz":"32417780","name":"Görne Südwest","lat":52.69888,"lon":12.50076},{"mkz":"32419812","name":"Vietznitz, Ringstraße 1","lat":52.72948,"lon":12.62723},{"mkz":"32419819","name":"Friesack, an der Kirche neu,OP","lat":52.74214,"lon":12.57896},{"mkz":"32419820","name":"Friesack, an der Kirche neu,UP","lat":52.74214,"lon":12.57896},{"mkz":"32419840","name":"Wutzetz, östlich B5","lat":52.78861,"lon":12.55428},{"mkz":"32419851","name":"Friesack, Bahnüberführung","lat":52.76042,"lon":12.58953},{"mkz":"32419870","name":"Michaelisbruch, Wald","lat":52.78386,"lon":12.51394},{"mkz":"32419874","name":"Michaelisbruch, Haus Nr.18, Fl","lat":52.77633,"lon":12.52535},{"mkz":"32419879","name":"Dreetz, 3 km südöstl. OP","lat":52.79471,"lon":12.51387},{"mkz":"32419880","name":"Dreetz, 3 km südöstl. UP","lat":52.79471,"lon":12.51387},{"mkz":"32419938","name":"Klessen Südost OP","lat":52.73497,"lon":12.51664},{"mkz":"32429403","name":"Hakenberg OP","lat":52.77951,"lon":12.83036},{"mkz":"32429404","name":"Hakenberg UP","lat":52.77951,"lon":12.83036},{"mkz":"32429503","name":"Betzin, Betziner Heide OP","lat":52.77604,"lon":12.76573},{"mkz":"32429504","name":"Betzin, Betziner Heide UP","lat":52.77604,"lon":12.76573},{"mkz":"32429600","name":"Königshorst","lat":52.7113,"lon":12.78832},{"mkz":"32429805","name":"Briesener Zootzen","lat":52.75721,"lon":12.67361},{"mkz":"32439500","name":"Ziethenhorst Süd","lat":52.79396,"lon":12.87556},{"mkz":"32439502","name":"Flatow, Weg nach Linumhorst","lat":52.75395,"lon":12.94563},{"mkz":"32439510","name":"Linum-Kuhhorst","lat":52.73062,"lon":12.85924},{"mkz":"32445001","name":"Bärenklau, Eichstädt. Weg 2","lat":52.7047,"lon":13.14007},{"mkz":"32445005","name":"Bärenklau Remontehof OP","lat":52.71906,"lon":13.14649},{"mkz":"32445006","name":"Bärenklau Remontehof UP","lat":52.71906,"lon":13.14649},{"mkz":"32445310","name":"Hohenbruch, 450m östl. Weg","lat":52.77889,"lon":13.12255},{"mkz":"32449202","name":"Hohenbruch, Waldesruh","lat":52.79251,"lon":13.16455},{"mkz":"32449203","name":"Kremmen, Klein Asien","lat":52.78791,"lon":13.03063},{"mkz":"32449204","name":"Groß Ziethen OP","lat":52.73051,"lon":13.03291},{"mkz":"32449205","name":"Groß Ziethen MP1","lat":52.73051,"lon":13.03291},{"mkz":"32449206","name":"Groß Ziethen MP2","lat":52.73051,"lon":13.03291},{"mkz":"32449209","name":"Kremmen, Luchweg","lat":52.77051,"lon":13.01836},{"mkz":"32449210","name":"Sommerswalde OP","lat":52.74932,"lon":13.11055},{"mkz":"32449211","name":"Sommerswalde UP","lat":52.7493,"lon":13.11053},{"mkz":"32449220","name":"Vehlefanz, Lindenweg OP","lat":52.71591,"lon":13.09819},{"mkz":"32449221","name":"Vehlefanz, Lindenweg UP","lat":52.71591,"lon":13.09819},{"mkz":"32449223","name":"Vehlefanz, am Glockenpfuhl","lat":52.70081,"lon":13.09327},{"mkz":"32449255","name":"Kremmen, Kurzer Damm","lat":52.75851,"lon":13.02832},{"mkz":"32454661","name":"Sachsenhausen, am Kanal","lat":52.77268,"lon":13.27863},{"mkz":"32454663","name":"Sachsenhausen, 800 m nördl.","lat":52.78833,"lon":13.23573},{"mkz":"32454665","name":"Fichtengrund, Jagenstein","lat":52.78113,"lon":13.26998},{"mkz":"32455002","name":"Borgsdorf-Pinnow OP","lat":52.69997,"lon":13.2461},{"mkz":"32455003","name":"Borgsdorf-Pinnow UP","lat":52.69997,"lon":13.2461},{"mkz":"32455015","name":"Leegebruch","lat":52.72144,"lon":13.18992},{"mkz":"32455020","name":"Friedrichsthal, Dorfplatz","lat":52.79695,"lon":13.2781},{"mkz":"32455305","name":"Hohenbruch, Weg n.Teerofen","lat":52.79534,"lon":13.17336},{"mkz":"32455391","name":"Oranienburg, Stralsunder Straße","lat":52.75387,"lon":13.24815},{"mkz":"32455395","name":"Oranienburg, Süd","lat":52.73554,"lon":13.24311},{"mkz":"32455411","name":"Borgsdorf, Weg n. Lehnitz","lat":52.73013,"lon":13.26598},{"mkz":"32455414","name":"Lehnitz, Mühlenb. Gestell","lat":52.7383,"lon":13.2816},{"mkz":"32455418","name":"Borgsdorf,nördl. Hohe Rampe","lat":52.72446,"lon":13.27573},{"mkz":"32455419","name":"Borgsdorf, B96 n. Oranienb.","lat":52.71607,"lon":13.25396},{"mkz":"32455420","name":"Birkenwerder, Briese","lat":52.70211,"lon":13.29779},{"mkz":"32455426","name":"Borgsdorf, am Oder-Havel-Kanal UP","lat":52.71255,"lon":13.24547},{"mkz":"32462086","name":"Wandlitz OP","lat":52.74997,"lon":13.49258},{"mkz":"32462087","name":"Wandlitz UP","lat":52.74996,"lon":13.49261},{"mkz":"32464600","name":"Klosterfelde, Trafostation OP","lat":52.78853,"lon":13.4779},{"mkz":"32464601","name":"Klosterfelde, Trafostation UP","lat":52.78853,"lon":13.4779},{"mkz":"32464603","name":"Stolzenhagen, Muldestraße","lat":52.76378,"lon":13.41713},{"mkz":"32464605","name":"Zehlendorf OP","lat":52.78384,"lon":13.40631},{"mkz":"32464606","name":"Zehlendorf UP","lat":52.78384,"lon":13.40631},{"mkz":"32465301","name":"Schmachtenhagen-Nord","lat":52.77639,"lon":13.34385},{"mkz":"32465403","name":"Schmachtenhagen Ost","lat":52.75714,"lon":13.34961},{"mkz":"32465412","name":"Basdorf, Nelkenstr.","lat":52.7107,"lon":13.4407},{"mkz":"32465414","name":"Wandlitz, Bahnhofstraße","lat":52.74465,"lon":13.46526},{"mkz":"32465430","name":"Summt","lat":52.70391,"lon":13.3696},{"mkz":"32471945","name":"Danewitz OP","lat":52.73463,"lon":13.66203},{"mkz":"32471947","name":"Danewitz UP","lat":52.73461,"lon":13.66202},{"mkz":"32471948","name":"Lanke OP","lat":52.76602,"lon":13.56372},{"mkz":"32471949","name":"Lanke UP","lat":52.76602,"lon":13.56369},{"mkz":"32471950","name":"Biesenthal OP alt","lat":52.77554,"lon":13.61414},{"mkz":"32471951","name":"Biesenthal UP alt","lat":52.77555,"lon":13.61413},{"mkz":"32471954","name":"Rüdnitz-MP","lat":52.71399,"lon":13.61883},{"mkz":"32471955","name":"Rüdnitz-UP","lat":52.71399,"lon":13.61883},{"mkz":"32471958","name":"Biesenthal OP","lat":52.79399,"lon":13.62837},{"mkz":"32472089","name":"Albertshof","lat":52.70258,"lon":13.64672},{"mkz":"32481965","name":"Schönholz MP neu","lat":52.77312,"lon":13.74984},{"mkz":"32481966","name":"Schönholz UP neu","lat":52.77309,"lon":13.74981},{"mkz":"32481967","name":"Tempelfelde,Str. Richtg.Grünth","lat":52.71159,"lon":13.71021},{"mkz":"32482083","name":"Heckelberg alt","lat":52.73641,"lon":13.83044},{"mkz":"32492085","name":"Gersdorf, Bushaltestelle","lat":52.76978,"lon":13.88952},{"mkz":"32500952","name":"Neugaul","lat":52.7557,"lon":14.11725},{"mkz":"32502100","name":"Bad Freienwalde, Deponie neu","lat":52.78135,"lon":14.05646},{"mkz":"32502101","name":"Wriezen, Ziegenfarm","lat":52.73397,"lon":14.1153},{"mkz":"32502102","name":"Wriezen","lat":52.71055,"lon":14.1323},{"mkz":"32502103","name":"Wriezen","lat":52.69919,"lon":14.13632},{"mkz":"32502104","name":"Altmädewitz, KSP Nr. 26","lat":52.74595,"lon":14.16371},{"mkz":"32502105","name":"Neuküstrinchen","lat":52.79362,"lon":14.14334},{"mkz":"32502107","name":"Wriezen, Neubauten","lat":52.7179,"lon":14.13943},{"mkz":"32502108","name":"Wriezen","lat":52.72602,"lon":14.13617},{"mkz":"32502110","name":"Wriezen, Einkaufszentrum","lat":52.72086,"lon":14.13581},{"mkz":"32502112","name":"Wriezen, Berliner Berg","lat":52.71472,"lon":14.13177},{"mkz":"32502114","name":"Wriezen, Gartenanlage","lat":52.71023,"lon":14.13852},{"mkz":"32502115","name":"Wriezen","lat":52.7026,"lon":14.13396},{"mkz":"32502116","name":"Bad Freienwalde, Eberswalder Straße","lat":52.78689,"lon":14.01354},{"mkz":"32502117","name":"Bad Freienwalde, GST, Wäscherei","lat":52.78835,"lon":14.02704},{"mkz":"32502121","name":"Bad Freienwalde, Alttornow","lat":52.78563,"lon":14.03905},{"mkz":"32502122","name":"Lüdersdorf, Priesterberg","lat":52.7002,"lon":14.08705},{"mkz":"32502123","name":"Bad Freienwalde, Volkspark","lat":52.7838,"lon":14.0328},{"mkz":"32502124","name":"Bad Freienwalde,Sonnenburger Straße","lat":52.77673,"lon":14.03173},{"mkz":"32502125","name":"Bad Freienwalde, gegenüber Finanzamt","lat":52.77981,"lon":14.04367},{"mkz":"32502126","name":"Bad Freienwalde, Kraftverkehr","lat":52.77605,"lon":14.05462},{"mkz":"32502127","name":"Bad Freienwalde, Wriezener Straße","lat":52.77231,"lon":14.06549},{"mkz":"32502128","name":"Flemmingsau, KSP Nr. 17","lat":52.78585,"lon":14.08204},{"mkz":"32502129","name":"Altranft KSP Nr. 19","lat":52.7731,"lon":14.09392},{"mkz":"32502131","name":"Altmädewitz","lat":52.74351,"lon":14.13946},{"mkz":"32502137","name":"Rathsdorf","lat":52.75283,"lon":14.09877},{"mkz":"32502140","name":"Wriezen","lat":52.7147,"lon":14.13695},{"mkz":"32502171","name":"Haselberg","lat":52.70185,"lon":14.02755},{"mkz":"32510209","name":"Zollbrücke, Dammhaus, neu","lat":52.78853,"lon":14.25086},{"mkz":"32510955","name":"Neurüdnitz","lat":52.78052,"lon":14.16932},{"mkz":"32512140","name":"Neulewin,alter Bahndamm, KSP 32","lat":52.73146,"lon":14.28175},{"mkz":"32512144","name":"Neurüdnitz","lat":52.79082,"lon":14.1849},{"mkz":"32512145","name":"Karlshof, KSP Nr. 28","lat":52.7498,"lon":14.25712},{"mkz":"32512147","name":"Eichwerder","lat":52.71975,"lon":14.19393},{"mkz":"32512148","name":"Thöringswerder, KSP Nr. 31","lat":52.71472,"lon":14.22494},{"mkz":"32512149","name":"Neubarnim, KSP Nr. 36","lat":52.70247,"lon":14.304},{"mkz":"32512150","name":"Friedrichshof, KSP Nr. 24","lat":52.77379,"lon":14.20998},{"mkz":"32512151","name":"Altwriezener Loose","lat":52.75257,"lon":14.19532},{"mkz":"32512152","name":"Altwriezen","lat":52.74145,"lon":14.20541},{"mkz":"32512157","name":"Güstebiese","lat":52.75593,"lon":14.30962},{"mkz":"32512166","name":"Neurüdnitz, KSP Nr. 76","lat":52.7985,"lon":14.17719},{"mkz":"32512168","name":"Neulietzegöricke","lat":52.77372,"lon":14.2752},{"mkz":"32512169","name":"Neulietzegöricke","lat":52.761,"lon":14.23964},{"mkz":"32520960","name":"Gieshof-Mehrin, KSP Nr. 34","lat":52.72636,"lon":14.33318},{"mkz":"32522181","name":"Ortwig-Graben","lat":52.71051,"lon":14.36416},{"mkz":"32522182","name":"Mehrin-Fahne","lat":52.72718,"lon":14.37292},{"mkz":"32522183","name":"Altblessiner Loose","lat":52.74989,"lon":14.33642},{"mkz":"32522184","name":"Groß-Neuendorf, auf dem Deich","lat":52.69954,"lon":14.41222},{"mkz":"32529241","name":"Tr.Gr.Neuendorf Nord I","lat":52.7161,"lon":14.38586},{"mkz":"32529243","name":"Tr.Gr.Neuendorf Nord III UP","lat":52.71596,"lon":14.38561},{"mkz":"32529244","name":"Tr.Gr.Neuendorf Nord IV","lat":52.71582,"lon":14.38536},{"mkz":"32529245","name":"Tr.Gr.Neuendorf Nord V OP","lat":52.71555,"lon":14.38509},{"mkz":"32529246","name":"Tr.Gr.Neuendorf Nord VI UP","lat":52.71555,"lon":14.38509},{"mkz":"32529247","name":"Tr.Gr.Neuendorf Nord VII","lat":52.7154,"lon":14.38487},{"mkz":"32529248","name":"Tr.Gr.Neuendorf Nord VIII","lat":52.715,"lon":14.38426},{"mkz":"32529249","name":"Tr.Gr.Neuendorf Nord IX","lat":52.7143,"lon":14.38323},{"mkz":"32529250","name":"Tr.Gr.Neuendorf Nord X","lat":52.7136,"lon":14.38224},{"mkz":"33392100","name":"Rathenow, Hermannstr.","lat":52.60044,"lon":12.30177},{"mkz":"33392107","name":"Steckelsdorf,n.Ebelgünde, OP","lat":52.62196,"lon":12.27472},{"mkz":"33392108","name":"Steckelsdorf,n.Ebelgünde, UP","lat":52.62196,"lon":12.27472},{"mkz":"33392110","name":"Steckelsdorf Nord","lat":52.60792,"lon":12.28829},{"mkz":"33392320","name":"Hohennauen, Bahnhof","lat":52.67195,"lon":12.32712},{"mkz":"33402090","name":"Rathenow, Bammer Landsstraße","lat":52.60317,"lon":12.35631},{"mkz":"33402098","name":"Rathenow, Karl-Marx-Platz","lat":52.61288,"lon":12.34831},{"mkz":"33407900","name":"Stechow","lat":52.62838,"lon":12.45798},{"mkz":"33407910","name":"Rathenow-Stechow OP","lat":52.61204,"lon":12.42423},{"mkz":"33407911","name":"Rathenow-Stechow UP","lat":52.61204,"lon":12.42423},{"mkz":"33407952","name":"Rathenow, am Wasserwerk","lat":52.61912,"lon":12.3772},{"mkz":"33407981","name":"Semlin, Heidekrug, Zum Sandberg","lat":52.64029,"lon":12.36935},{"mkz":"33417575","name":"Liepe","lat":52.61224,"lon":12.601},{"mkz":"33417726","name":"Nennhausen Fogue-Platz","lat":52.6061,"lon":12.50429},{"mkz":"33417780","name":"Kotzen","lat":52.64175,"lon":12.51035},{"mkz":"33419914","name":"Briesen, ca. 1 km südwestl. OP","lat":52.69796,"lon":12.56631},{"mkz":"33419915","name":"Briesen, ca. 1 km südwestl. MP","lat":52.69796,"lon":12.56631},{"mkz":"33419916","name":"Briesen, ca. 1 km südwestl. UP","lat":52.69796,"lon":12.56631},{"mkz":"33419920","name":"Mühlenberge, Wagenitz","lat":52.67965,"lon":12.63543},{"mkz":"33427116","name":"Berge-Lietzow","lat":52.61751,"lon":12.81506},{"mkz":"33427122","name":"Berge, Berger Weg, OP","lat":52.60181,"lon":12.78055},{"mkz":"33427123","name":"Berge, Berger Weg, MP","lat":52.60181,"lon":12.78055},{"mkz":"33427180","name":"Ribbeck, Marienhof","lat":52.64332,"lon":12.75248},{"mkz":"33427290","name":"Dreibrück","lat":52.68425,"lon":12.83031},{"mkz":"33427310","name":"Paulinenaue, Kamerun","lat":52.65567,"lon":12.73587},{"mkz":"33427350","name":"Paulinenaue, am Silograben, OP","lat":52.68987,"lon":12.73247},{"mkz":"33427351","name":"Paulinenaue, am Silograben, UP","lat":52.68987,"lon":12.73252},{"mkz":"33427520","name":"Retzow-Selbelang","lat":52.6261,"lon":12.6909},{"mkz":"33437057","name":"Brieselang, Lange Straße","lat":52.59868,"lon":12.9982},{"mkz":"33437070","name":"Bredow, Siedlung Glien","lat":52.61566,"lon":12.96819},{"mkz":"33437090","name":"Perwenitz, Luchstraße, OP","lat":52.62977,"lon":12.97972},{"mkz":"33437091","name":"Perwenitz, Luchstraße, UP","lat":52.62977,"lon":12.97972},{"mkz":"33437106","name":"Nauen, Graf-Arco-Straße","lat":52.63555,"lon":12.90797},{"mkz":"33437130","name":"Kienberg, Teufelshof","lat":52.66052,"lon":12.86923},{"mkz":"33437210","name":"Börnicke, Str. Börn.-Grünefeld","lat":52.68219,"lon":12.9449},{"mkz":"33437220","name":"Börnicke, Str. Nauen-Börnicke, UF","lat":52.65933,"lon":12.92263},{"mkz":"33442420","name":"Schönwalde, Falkenhagener Weg","lat":52.61629,"lon":13.12365},{"mkz":"33442430","name":"Schönwalde Friedhof","lat":52.60681,"lon":13.12934},{"mkz":"33442440","name":"Schönwalde-Siedlung, Pausiner Straße","lat":52.59876,"lon":13.11245},{"mkz":"33442451","name":"Marwitz Dorfteich","lat":52.67632,"lon":13.14445},{"mkz":"33442484","name":"Bötzow, gegenü. Sauerholzweg 2","lat":52.65994,"lon":13.15755},{"mkz":"33442498","name":"Alt Brieselang, Wiesenweg","lat":52.61108,"lon":12.99942},{"mkz":"33447102","name":"Paaren i.Gl., ca.1 km nordöstl","lat":52.65833,"lon":12.99964},{"mkz":"33447300","name":"Krämerpfuhl","lat":52.69238,"lon":13.03131},{"mkz":"33447305","name":"Neu-Vehlefanz","lat":52.693,"lon":13.07114},{"mkz":"33451751","name":"Stolpe-Süd, Kuckucksruf OP","lat":52.62875,"lon":13.23471},{"mkz":"33451752","name":"Stolpe-Süd, Kuckucksruf UP","lat":52.62875,"lon":13.23471},{"mkz":"33452450","name":"Hennigsdorf, Kanal, Am Ufer 9","lat":52.61538,"lon":13.19991},{"mkz":"33452451","name":"Hennigsdorf, 1,3 km v. Trappen-Allee","lat":52.6188,"lon":13.17593},{"mkz":"33452454","name":"Hennigsdorf, Blockbrücke","lat":52.6407,"lon":13.16911},{"mkz":"33455008","name":"Hennigsdorf, Rathausplatz OP","lat":52.63757,"lon":13.20821},{"mkz":"33455011","name":"Hennigsdorf, Blumenstraße OP","lat":52.64667,"lon":13.19552},{"mkz":"33455015","name":"Velten, Hohenschöpping OP","lat":52.67477,"lon":13.21783},{"mkz":"33455021","name":"Velten, Mühlenstraße OP","lat":52.69299,"lon":13.16679},{"mkz":"33455424","name":"Borgsdorf,750m südl. Autob.","lat":52.69229,"lon":13.24144},{"mkz":"33455425","name":"Velten, Gerickes Ruh OP","lat":52.69062,"lon":13.2116},{"mkz":"33455426","name":"Velten, Gerickes Ruh UP","lat":52.69062,"lon":13.2116},{"mkz":"33455490","name":"Velten, Mittelstraße","lat":52.69058,"lon":13.17685},{"mkz":"33455572","name":"Birkenwerder","lat":52.69323,"lon":13.27633},{"mkz":"33465015","name":"Gorinsee","lat":52.69111,"lon":13.47585},{"mkz":"33465503","name":"Bergfelde, Lichtung","lat":52.68103,"lon":13.33746},{"mkz":"33465504","name":"Schildow OP","lat":52.63992,"lon":13.37947},{"mkz":"33465505","name":"Schildow MP","lat":52.63992,"lon":13.37949},{"mkz":"33465506","name":"Schildow UP","lat":52.63992,"lon":13.37949},{"mkz":"33465509","name":"Summt, Friedhof","lat":52.68884,"lon":13.37253},{"mkz":"33465511","name":"Mühlenbeck","lat":52.66536,"lon":13.37798},{"mkz":"33465515","name":"Schönwalde, Friedhofsweg","lat":52.68025,"lon":13.44297},{"mkz":"33465517","name":"Schönerlinde","lat":52.65476,"lon":13.44609},{"mkz":"33470881","name":"Bernau, Stadtpark","lat":52.67797,"lon":13.58388},{"mkz":"33470908","name":"Schönow","lat":52.67431,"lon":13.53218},{"mkz":"33470916","name":"Zepernick","lat":52.65415,"lon":13.5429},{"mkz":"33470920","name":"Zepernick","lat":52.64734,"lon":13.51987},{"mkz":"33470958","name":"Bernau","lat":52.67458,"lon":13.57102},{"mkz":"33470959","name":"Röntgental","lat":52.64848,"lon":13.5327},{"mkz":"33470960","name":"Bernau/Lindow","lat":52.6646,"lon":13.57939},{"mkz":"33471550","name":"Lindenberg","lat":52.60272,"lon":13.52531},{"mkz":"33475010","name":"Zepernick","lat":52.65995,"lon":13.53034},{"mkz":"33480245","name":"Werneuchen Bahnhof","lat":52.63712,"lon":13.7374},{"mkz":"33480246","name":"Werneuchen","lat":52.6334,"lon":13.73867},{"mkz":"33481557","name":"Wegendorf","lat":52.59866,"lon":13.76518},{"mkz":"33482200","name":"Beiersdorf","lat":52.6901,"lon":13.7799},{"mkz":"33485041","name":"Tiefensee","lat":52.66997,"lon":13.79493},{"mkz":"33491520","name":"Gielsdorf OP","lat":52.60141,"lon":13.87354},{"mkz":"33491521","name":"Gielsdorf UP","lat":52.60141,"lon":13.87354},{"mkz":"33502240","name":"Kunersdorf","lat":52.67713,"lon":14.15665},{"mkz":"33502241","name":"Reichenow","lat":52.65097,"lon":14.06591},{"mkz":"33502242","name":"Batzlow, Bushaltestelle","lat":52.63213,"lon":14.11782},{"mkz":"33502243","name":"Kunersdorf","lat":52.66807,"lon":14.1538},{"mkz":"33502244","name":"Ringenwalde","lat":52.61571,"lon":14.13896},{"mkz":"33502245","name":"Reichenberg, HyBtl 15/71 OP","lat":52.61362,"lon":14.10693},{"mkz":"33502248","name":"Batzlow-MP","lat":52.65439,"lon":14.11021},{"mkz":"33502249","name":"Batzlow-UP","lat":52.65439,"lon":14.11021},{"mkz":"33502252","name":"Batzlow-UP","lat":52.63675,"lon":14.15985},{"mkz":"33502255","name":"Batzlow-OP","lat":52.63675,"lon":14.15985},{"mkz":"33502260","name":"Grunow, Ernsthof","lat":52.60162,"lon":14.00272},{"mkz":"33510961","name":"Gottesgabe-Neufriedland, KSP Nr. 40","lat":52.63784,"lon":14.19394},{"mkz":"33512271","name":"Kiehnwerder, KSP Nr. 50","lat":52.62061,"lon":14.30514},{"mkz":"33512272","name":"Altbarnim","lat":52.6783,"lon":14.2873},{"mkz":"33512273","name":"Neufriedland, Alte Mühle, KSP Nr. 47","lat":52.65093,"lon":14.2429},{"mkz":"33512275","name":"Alttrebbiner Loose, KSP Nr. 38","lat":52.69573,"lon":14.23478},{"mkz":"33512278","name":"Metzdorf","lat":52.66088,"lon":14.17367},{"mkz":"33512279","name":"Altbarnim","lat":52.684,"lon":14.26988},{"mkz":"33512281","name":"Kiehnwerder-Horst","lat":52.64097,"lon":14.28822},{"mkz":"33512283","name":"Bärwinkel","lat":52.60953,"lon":14.26479},{"mkz":"33512285","name":"Kienwerder","lat":52.63398,"lon":14.2986},{"mkz":"33512288","name":"Altfriedland","lat":52.6073,"lon":14.183},{"mkz":"33512289","name":"Gottesgabe","lat":52.6379,"lon":14.1772},{"mkz":"33512290","name":"Neu-Trebbin,Schachtbr.","lat":52.66976,"lon":14.22783},{"mkz":"33512291","name":"Kunersdorf-Dammkrug, KSP Nr. 29","lat":52.67692,"lon":14.1763},{"mkz":"33512293","name":"Neuhardenberg, KSP Nr. 48","lat":52.60295,"lon":14.22005},{"mkz":"33520964","name":"Großneuendorf","lat":52.69686,"lon":14.37919},{"mkz":"33520965","name":"Kienitz","lat":52.67096,"lon":14.44133},{"mkz":"33520966","name":"Kienitz","lat":52.66716,"lon":14.42691},{"mkz":"33520968","name":"Letschin, KSP Nr. 52","lat":52.6334,"lon":14.36713},{"mkz":"33520970","name":"Letschin, Straße nach Gusow, KSP Nr. 61","lat":52.6073,"lon":14.34317},{"mkz":"33522320","name":"Letschin, Richtung Kienitz, KSP Nr. 45","lat":52.654,"lon":14.36767},{"mkz":"33522321","name":"Letschin","lat":52.64509,"lon":14.39817},{"mkz":"33522324","name":"Letschin, Wriezener Straße","lat":52.64558,"lon":14.35304},{"mkz":"33522325","name":"Voßberg, KSP Nr. 53","lat":52.62743,"lon":14.38988},{"mkz":"33522326","name":"Basta","lat":52.61164,"lon":14.40791},{"mkz":"33522327","name":"Gusower Loose, KSP Nr. 60","lat":52.60073,"lon":14.38772},{"mkz":"33522329","name":"Zechin","lat":52.61092,"lon":14.4686},{"mkz":"33522332","name":"Sydowswiese, Deich","lat":52.65134,"lon":14.46504},{"mkz":"33522333","name":"Sophienthal, Deich","lat":52.65574,"lon":14.44591},{"mkz":"33522336","name":"Solikante","lat":52.67443,"lon":14.35563},{"mkz":"33522337","name":"Neuendorfer Loose","lat":52.68043,"lon":14.33398},{"mkz":"33522339","name":"Rehfeld","lat":52.64261,"lon":14.42632},{"mkz":"33522341","name":"Sophienthal","lat":52.63825,"lon":14.47272},{"mkz":"33522342","name":"Letschin, Louisenhof,  KSP 51","lat":52.63412,"lon":14.33495},{"mkz":"33522344","name":"Letschin, Friedrichsaue","lat":52.59898,"lon":14.46454},{"mkz":"33522347","name":"Sophienthal-Eichenhof","lat":52.63923,"lon":14.45976},{"mkz":"33532380","name":"Genschmar, Baracke A&V, KSP Nr. 56","lat":52.6143,"lon":14.51615},{"mkz":"33532381","name":"Wilhelminenhof","lat":52.60276,"lon":14.50631},{"mkz":"33532383","name":"Genschmarer Loose, Deich","lat":52.61931,"lon":14.54568},{"mkz":"33532384","name":"Altbleyen","lat":52.60896,"lon":14.57974},{"mkz":"33532388","name":"Genschmar","lat":52.61824,"lon":14.52656},{"mkz":"33532390","name":"Genschmar","lat":52.61081,"lon":14.55107},{"mkz":"34392100","name":"Kleinwudicke","lat":52.59406,"lon":12.20817},{"mkz":"34392110","name":"Buckow, am Cossathen-Berg","lat":52.57391,"lon":12.26486},{"mkz":"34392120","name":"Vieritz, ca. 1 km nördl., OP","lat":52.53753,"lon":12.24919},{"mkz":"34392121","name":"Vieritz, ca. 1 km nördl., MP","lat":52.53753,"lon":12.24919},{"mkz":"34392122","name":"Vieritz, ca. 1 km nördl., UP","lat":52.53753,"lon":12.24919},{"mkz":"34396780","name":"Premnitz, Bützer Feld","lat":52.53641,"lon":12.32432},{"mkz":"34402015","name":"Bamme Südwest","lat":52.57882,"lon":12.41168},{"mkz":"34402025","name":"Bamme","lat":52.57991,"lon":12.43543},{"mkz":"34402050","name":"Rathenow Wald","lat":52.58351,"lon":12.36304},{"mkz":"34402790","name":"Pritzerbe, Birkenwäldchen","lat":52.5073,"lon":12.46144},{"mkz":"34407725","name":"Gräningen Nord","lat":52.58023,"lon":12.47561},{"mkz":"34416018","name":"Barnewitz, Ortsteil Linde","lat":52.54578,"lon":12.66342},{"mkz":"34416120","name":"Marzahne Nord","lat":52.5308,"lon":12.53499},{"mkz":"34416123","name":"Gortz-Barnewitz","lat":52.52382,"lon":12.6392},{"mkz":"34416125","name":"Gortz, ca. 1 km nordöstl., UP","lat":52.52166,"lon":12.65555},{"mkz":"34417503","name":"Buschow, Bahnhof","lat":52.59163,"lon":12.63127},{"mkz":"34417705","name":"Garlitz, Mittelheide","lat":52.55946,"lon":12.53505},{"mkz":"34417713","name":"Barnewitz, ca.2,5 km südwestl.","lat":52.5442,"lon":12.59614},{"mkz":"34426005","name":"Groß Behnitz, Sandkrug","lat":52.58546,"lon":12.7458},{"mkz":"34426013","name":"Klein Behnitz Süd OP","lat":52.5597,"lon":12.70215},{"mkz":"34426014","name":"Klein Behnitz Süd UP","lat":52.5597,"lon":12.70215},{"mkz":"34426015","name":"Gohlitz-Quermathen","lat":52.55558,"lon":12.76644},{"mkz":"34426022","name":"Wachow Nordwest","lat":52.54499,"lon":12.73638},{"mkz":"34426024","name":"Wachow,ca. 1 km südöstl.Wachow","lat":52.5248,"lon":12.7745},{"mkz":"34426025","name":"Päwesin, Str. Päwesin - Wachow","lat":52.51689,"lon":12.73798},{"mkz":"34426100","name":"Wachow, Dorfstellen, OP","lat":52.52695,"lon":12.72782},{"mkz":"34426101","name":"Wachow, Dorfstellen, UP","lat":52.52695,"lon":12.72782},{"mkz":"34426110","name":"Bagow, Bollmannsruh","lat":52.50704,"lon":12.68008},{"mkz":"34427480","name":"Groß Behnitz, Ribbecker Heide OP","lat":52.59039,"lon":12.70711},{"mkz":"34427481","name":"Groß Behnitz, Ribbecker Heide UP","lat":52.59039,"lon":12.70711},{"mkz":"34432508","name":"Hoppenrade Ausbau, Mühlenberg","lat":52.52347,"lon":12.93456},{"mkz":"34437055","name":"Brieselang, Daimler Str.","lat":52.5807,"lon":12.98288},{"mkz":"34437100","name":"Markee-Neuhof","lat":52.57232,"lon":12.84245},{"mkz":"34437104","name":"Neukammer, Mittelweg","lat":52.59876,"lon":12.84394},{"mkz":"34442481","name":"Falkensee, Mannheimer Straße","lat":52.58245,"lon":13.07258},{"mkz":"34447010","name":"Falkensee, nahe Rote Villa","lat":52.57698,"lon":13.10585},{"mkz":"34447012","name":"Falkensee-Finkenkrug, Kirche","lat":52.56319,"lon":13.04242},{"mkz":"34447013","name":"Dallgow, nördlich der Bahngleise","lat":52.54287,"lon":13.08842},{"mkz":"34447060","name":"Falkens./Fink.Wismarer Str. OP, UF","lat":52.56366,"lon":13.01127},{"mkz":"34447061","name":"Falkens./Fink.Wismarer Str.MP1, UF","lat":52.56366,"lon":13.01127},{"mkz":"34447063","name":"Falkens./ Fink.Wismarer Str. UP, UF","lat":52.56366,"lon":13.01127},{"mkz":"34447100","name":"Falkensee, Herlitzweg OP","lat":52.55257,"lon":13.11855},{"mkz":"34471523","name":"Neulindenberg","lat":52.59829,"lon":13.55477},{"mkz":"34471545","name":"Eiche, Dorfstraße","lat":52.56278,"lon":13.58972},{"mkz":"34471563","name":"Ahrensfelde OP","lat":52.5842,"lon":13.56555},{"mkz":"34471564","name":"Ahrensfelde UP","lat":52.5842,"lon":13.56555},{"mkz":"34471565","name":"Mehrow","lat":52.57218,"lon":13.62134},{"mkz":"34471567","name":"Blumberg","lat":52.59492,"lon":13.63217},{"mkz":"34480880","name":"Bollensdorf","lat":52.50172,"lon":13.7029},{"mkz":"34480960","name":"Petershagen","lat":52.50752,"lon":13.78324},{"mkz":"34480961","name":"Vogelsdorf","lat":52.50387,"lon":13.76684},{"mkz":"34480966","name":"Fredersdorf, Gartenstraße","lat":52.52225,"lon":13.75232},{"mkz":"34481534","name":"Bruchmühle OP","lat":52.55496,"lon":13.77104},{"mkz":"34481535","name":"Bruchmühle MP","lat":52.55496,"lon":13.77104},{"mkz":"34481536","name":"Bruchmühle UP","lat":52.55496,"lon":13.77104},{"mkz":"34481540","name":"Fredersdorf, Friedrich-Engels-Straße","lat":52.53764,"lon":13.76095},{"mkz":"34485044","name":"Petershagen, Eggersdorfer Straße","lat":52.52972,"lon":13.79441},{"mkz":"34485057","name":"Eggersdorf, Wald","lat":52.54018,"lon":13.81379},{"mkz":"34491539","name":"Zinndorf","lat":52.50646,"lon":13.92921},{"mkz":"34491542","name":"Rehfelde OP","lat":52.54327,"lon":13.9156},{"mkz":"34491543","name":"Rehfelde UP","lat":52.54327,"lon":13.9156},{"mkz":"34491544","name":"Strausberg OP","lat":52.543,"lon":13.86551},{"mkz":"34491547","name":"Strausberg UP","lat":52.53602,"lon":13.85906},{"mkz":"34491548","name":"Strausberg, Herrensee","lat":52.55322,"lon":13.87958},{"mkz":"34491549","name":"Strausberg, Torfhaus","lat":52.51874,"lon":13.84248},{"mkz":"34495032","name":"Strausberg Treuenhof","lat":52.57005,"lon":13.92745},{"mkz":"34495033","name":"Strausberg West","lat":52.56209,"lon":13.84282},{"mkz":"34500877","name":"Buckow, Br. Bahnhof","lat":52.56095,"lon":14.07564},{"mkz":"34500878","name":"Buckow, vor Bahnhof","lat":52.56073,"lon":14.0753},{"mkz":"34502401","name":"Müncheberg, Bergmannstraße","lat":52.50329,"lon":14.15176},{"mkz":"34502410","name":"Pritzhagen","lat":52.58912,"lon":14.09862},{"mkz":"34502412","name":"Müncheberg,Gelände LIW II","lat":52.50195,"lon":14.1625},{"mkz":"34502413","name":"Münchehofe, Müncheberg","lat":52.56179,"lon":14.14469},{"mkz":"34502540","name":"Müncheberg-Heilstätte","lat":52.49866,"lon":14.0958},{"mkz":"34505031","name":"Waldsieversdorf","lat":52.54377,"lon":14.05485},{"mkz":"34510971","name":"Platkow","lat":52.58395,"lon":14.3227},{"mkz":"34512420","name":"Neuhardenberg, Richtung Wulkow","lat":52.58932,"lon":14.24158},{"mkz":"34512423","name":"Neuhardenberg, Graben an B 167","lat":52.59237,"lon":14.26069},{"mkz":"34512425","name":"Platkow-Vogelsang","lat":52.5685,"lon":14.30741},{"mkz":"34512426","name":"Neuhardenberg, Feld","lat":52.58398,"lon":14.27767},{"mkz":"34512427","name":"Platkow-Neuhof","lat":52.59573,"lon":14.31021},{"mkz":"34512428","name":"Hermersdorf OP","lat":52.56833,"lon":14.20016},{"mkz":"34512429","name":"Hermersdorf UP","lat":52.56833,"lon":14.20016},{"mkz":"34515030","name":"Worin OP","lat":52.52495,"lon":14.2624},{"mkz":"34515031","name":"Worin UP","lat":52.52497,"lon":14.26235},{"mkz":"34520976","name":"Seelow,eh. Feuerwehr/j.Polizei","lat":52.53225,"lon":14.3815},{"mkz":"34522430","name":"Gusow, Gärtnerei","lat":52.56573,"lon":14.35307},{"mkz":"34522455","name":"Alt Tucheband, Seelower Straße, KSP 70","lat":52.54191,"lon":14.46458},{"mkz":"34522457","name":"Seelow, Kläranlage","lat":52.54283,"lon":14.39505},{"mkz":"34522459","name":"Golzow, B 7, Giftschuppen","lat":52.57679,"lon":14.49358},{"mkz":"34522461","name":"Sachsendorf, KSP Nr. 71","lat":52.51149,"lon":14.48523},{"mkz":"34522464","name":"Alt-Langsow","lat":52.57555,"lon":14.41562},{"mkz":"34522477","name":"Seelow, Friedhof","lat":52.53154,"lon":14.37237},{"mkz":"34522478","name":"Seelow","lat":52.52708,"lon":14.38506},{"mkz":"34522486","name":"Ludwigslust OP","lat":52.5176,"lon":14.41744},{"mkz":"34522487","name":"Ludwigslust MP","lat":52.5176,"lon":14.41744},{"mkz":"34522488","name":"Ludwigslust UP","lat":52.5176,"lon":14.41744},{"mkz":"34522490","name":"Hackenow","lat":52.5257,"lon":14.46502},{"mkz":"34522492","name":"Seelow,Tankstelle","lat":52.53522,"lon":14.38961},{"mkz":"34522495","name":"Gusow-OP,HyGsow 14/79 OP","lat":52.56064,"lon":14.34963},{"mkz":"34522496","name":"Gusow-UP,HyGsow 14/79 UP","lat":52.56064,"lon":14.34963},{"mkz":"34522497","name":"Golzow,Feuerwehrhaus","lat":52.57379,"lon":14.49213},{"mkz":"34522498","name":"Gusow OP, KSP 59","lat":52.58414,"lon":14.3868},{"mkz":"34530555","name":"Manschnow, Rohr 14l","lat":52.55581,"lon":14.5489},{"mkz":"34532500","name":"Reitwein","lat":52.50768,"lon":14.57303},{"mkz":"34532501","name":"Hathenow","lat":52.50525,"lon":14.5375},{"mkz":"34532503","name":"Golzow, Abzweig Alttucheband","lat":52.571,"lon":14.50373},{"mkz":"34532504","name":"Gorgast","lat":52.57348,"lon":14.5419},{"mkz":"34532507","name":"Rathstock, KSP Nr. 72","lat":52.5227,"lon":14.54013},{"mkz":"34532509","name":"Reitwein(Deich)","lat":52.51266,"lon":14.5981},{"mkz":"34532511","name":"Reitwein","lat":52.52679,"lon":14.58875},{"mkz":"34532512","name":"Herzershof, KSP Nr. 83","lat":52.54265,"lon":14.5594},{"mkz":"34532514","name":"Alt-Bleyen, KSP Nr. 67","lat":52.58189,"lon":14.57649},{"mkz":"34532515","name":"Neu-Bleyen","lat":52.59806,"lon":14.5909},{"mkz":"34532517","name":"Reitwein(Deich)","lat":52.50127,"lon":14.6102},{"mkz":"34532521","name":"Reitwein, Triftweg","lat":52.5039,"lon":14.58308},{"mkz":"34532523","name":"Golzow,Heimstättensiedlung","lat":52.56335,"lon":14.5107},{"mkz":"34532526","name":"Küstrin-Kietz, Salz","lat":52.57059,"lon":14.61997},{"mkz":"35396712","name":"Bensdorf-Vehlen, OP","lat":52.44535,"lon":12.30845},{"mkz":"35396713","name":"Bensdorf-Vehlen, UP","lat":52.44535,"lon":12.30845},{"mkz":"35405930","name":"Plaue, Ortsteil Charlottenhof","lat":52.41755,"lon":12.40355},{"mkz":"35405945","name":"Woltersdorf, am Kanal","lat":52.40107,"lon":12.37201},{"mkz":"35406210","name":"Brandenburg, am Gördensee","lat":52.4368,"lon":12.48383},{"mkz":"35406320","name":"Brandenburg, Bohnländer See","lat":52.45513,"lon":12.49377},{"mkz":"35406370","name":"Brandenburg, Plauerhof","lat":52.41461,"lon":12.44239},{"mkz":"35406373","name":"Möthlitz, Neu Plauer Forst, OP","lat":52.45775,"lon":12.41022},{"mkz":"35406375","name":"Möthlitz, Neu Plauer Forst, MP2","lat":52.45775,"lon":12.41022},{"mkz":"35406376","name":"Möthlitz, Neu Plauer Forst, UP","lat":52.45775,"lon":12.41022},{"mkz":"35406384","name":"Knoblauch, ca. 1 km südl., UP","lat":52.43921,"lon":12.35122},{"mkz":"35406451","name":"Kützkow","lat":52.49108,"lon":12.43361},{"mkz":"35406530","name":"Nitzahn,ca.0,5km südl.Ch.-Haus","lat":52.45834,"lon":12.36221},{"mkz":"35412785","name":"Klein Kreutz, Alte Weinberge","lat":52.44351,"lon":12.63923},{"mkz":"35416130","name":"Lünow OP","lat":52.47611,"lon":12.64906},{"mkz":"35416131","name":"Lünow MP","lat":52.47609,"lon":12.64908},{"mkz":"35416150","name":"Brandenburg, Fohrder Landstraße","lat":52.42769,"lon":12.53903},{"mkz":"35416160","name":"Marzahne, Marzahner Fenn","lat":52.49789,"lon":12.53798},{"mkz":"35416166","name":"Weseram","lat":52.46608,"lon":12.65154},{"mkz":"35416168","name":"Klein Kreutz","lat":52.45425,"lon":12.6192},{"mkz":"35416173","name":"Butzow-Gortz","lat":52.49537,"lon":12.61289},{"mkz":"35416176","name":"Brandenburg, Fritze-Bollmann-Weg OP","lat":52.44407,"lon":12.55812},{"mkz":"35416178","name":"Brielow, OT Seehof, Seestr. OP","lat":52.4714,"lon":12.56184},{"mkz":"35416180","name":"Brielow, Abzweig nach Radewege","lat":52.47902,"lon":12.53923},{"mkz":"35416185","name":"Brandenburg, Str. nach Mötzow","lat":52.44133,"lon":12.58369},{"mkz":"35422520","name":"Deetz-Schmergow OP","lat":52.4425,"lon":12.78938},{"mkz":"35422521","name":"Deetz-Schmergow UP","lat":52.4425,"lon":12.78938},{"mkz":"35422710","name":"Groß Kreutz-Jeserig","lat":52.40579,"lon":12.75037},{"mkz":"35426050","name":"Zachow Nord","lat":52.48834,"lon":12.78113},{"mkz":"35426140","name":"Roskow-Päwesin","lat":52.48627,"lon":12.69875},{"mkz":"35432326","name":"Eiche, Ehrenpfortenberg, MP","lat":52.40946,"lon":12.98378},{"mkz":"35432345","name":"Werder,gegenü. Gelände -Miele-","lat":52.4038,"lon":12.90537},{"mkz":"35432347","name":"Kemnitz, Str.Werder-Phöben,AB","lat":52.41383,"lon":12.89864},{"mkz":"35432400","name":"Kemnitz, am Ort","lat":52.40647,"lon":12.87249},{"mkz":"35432435","name":"Schmergow, Schmergower Bruch","lat":52.4618,"lon":12.83225},{"mkz":"35432500","name":"Töplitz, Kanalweg","lat":52.4333,"lon":12.90874},{"mkz":"35432575","name":"Falkenrehde, Gemeindehaus","lat":52.49531,"lon":12.92327},{"mkz":"35432590","name":"Marquardt, an der AB Bln.-Ring","lat":52.47344,"lon":12.95322},{"mkz":"35432600","name":"Golm Nord","lat":52.41763,"lon":12.96813},{"mkz":"35442123","name":"Seeburg, ca. 1,2 km südl.","lat":52.49554,"lon":13.12408},{"mkz":"35442150","name":"Groß Glienicke, Am Fenn, OP","lat":52.46547,"lon":13.09886},{"mkz":"35442151","name":"Groß Glienicke, Am Fenn, UP","lat":52.46547,"lon":13.09886},{"mkz":"35442166","name":"Sacrow, Bushaltest.z.FH Zedlitz","lat":52.43793,"lon":13.07927},{"mkz":"35442200","name":"Potsdam, Nauener Tor","lat":52.40378,"lon":13.05904},{"mkz":"35442203","name":"Potsdam, Charlottenstr. 46","lat":52.39982,"lon":13.05984},{"mkz":"35442240","name":"Potsdam, Große Weinmeisterstraße UF","lat":52.41619,"lon":13.06366},{"mkz":"35442250","name":"Bornstedt, Eichenallee, OP","lat":52.40897,"lon":13.02771},{"mkz":"35442251","name":"Bornstedt, Eichenallee, UP","lat":52.40897,"lon":13.02771},{"mkz":"35442253","name":"Potsdam, Voltaireweg","lat":52.40484,"lon":13.04174},{"mkz":"35442254","name":"Potsdam, Drachenhaus","lat":52.40495,"lon":13.02178},{"mkz":"35442256","name":"Potsdam, Orangerie","lat":52.40684,"lon":13.02884},{"mkz":"35442309","name":"Bornim, Königsdamm, OP","lat":52.4416,"lon":13.02342},{"mkz":"35442310","name":"Bornim, Königsdamm, UP","lat":52.4416,"lon":13.02342},{"mkz":"35442314","name":"Bornim, Lerchenst./Kreuz.Schneiderweg, OP","lat":52.43499,"lon":13.01601},{"mkz":"35442315","name":"Bornim, Lerchenst./Kreuz.Schneiderweg, UP","lat":52.43499,"lon":13.01601},{"mkz":"35442335","name":"Fahrland,ca.500 m südwestl.Gut","lat":52.46114,"lon":13.00557},{"mkz":"35459841","name":"Teltow, Lichterf.A./ Hauffstr.UP, UF","lat":52.40807,"lon":13.2876},{"mkz":"35459842","name":"Teltow,Lichterf.A./Hauffstr.MP, UF","lat":52.40807,"lon":13.2876},{"mkz":"35459843","name":"Teltow,Lichterf.A./Hauffstr,OP, UF","lat":52.40807,"lon":13.2876},{"mkz":"35459851","name":"Teltow, Siedler Rain, UP","lat":52.39881,"lon":13.28777},{"mkz":"35459852","name":"Teltow, Siedler Rain, OP","lat":52.39881,"lon":13.28777},{"mkz":"35459853","name":"Teltow, Siedler Rain, MP2","lat":52.39881,"lon":13.28777},{"mkz":"35459952","name":"Kleinmachnow, Zehlendorfer Damm","lat":52.41422,"lon":13.24257},{"mkz":"35459953","name":"Kleinmachnow, Stammbahn","lat":52.42016,"lon":13.22408},{"mkz":"35459954","name":"Kleinmachnow, Stahnsdorfer Damm","lat":52.40488,"lon":13.19853},{"mkz":"35480280","name":"Erkner","lat":52.41545,"lon":13.75728},{"mkz":"35480874","name":"Münchehofe, Hoppegarten","lat":52.4888,"lon":13.67199},{"mkz":"35480931","name":"Woltersdorf","lat":52.45656,"lon":13.74041},{"mkz":"35480935","name":"Tasdorf","lat":52.496,"lon":13.78684},{"mkz":"35480938","name":"Schöneiche","lat":52.46875,"lon":13.69789},{"mkz":"35480939","name":"Schöneiche","lat":52.47312,"lon":13.69868},{"mkz":"35480940","name":"Schöneiche","lat":52.47284,"lon":13.71399},{"mkz":"35481611","name":"Erkner-Karutzhöhe","lat":52.40376,"lon":13.76234},{"mkz":"35481952","name":"Schöneiche","lat":52.48642,"lon":13.71151},{"mkz":"35485390","name":"Grünheide","lat":52.40764,"lon":13.81182},{"mkz":"35485391","name":"Erkner","lat":52.42158,"lon":13.77787},{"mkz":"35490240","name":"Hangelsberg, Trebuser Graben","lat":52.40061,"lon":13.92111},{"mkz":"35490289","name":"Klein Wall","lat":52.41716,"lon":13.86905},{"mkz":"35501620","name":"Schönfelde OP","lat":52.46234,"lon":14.05872},{"mkz":"35501621","name":"Schönfelde UP","lat":52.4623,"lon":14.05874},{"mkz":"35501662","name":"Jänickendorf","lat":52.43082,"lon":14.01881},{"mkz":"35501665","name":"Tempelberg","lat":52.46211,"lon":14.14646},{"mkz":"35502541","name":"Eggersdorf bei Müncheberg","lat":52.47634,"lon":14.10474},{"mkz":"35512550","name":"Falkenhagen","lat":52.42017,"lon":14.31497},{"mkz":"35522580","name":"Wulkow","lat":52.40302,"lon":14.47459},{"mkz":"35522581","name":"Petershagen bei Frankfurt","lat":52.39956,"lon":14.33716},{"mkz":"35522582","name":"Döbberin","lat":52.44268,"lon":14.37141},{"mkz":"35522583","name":"Niederjesar","lat":52.44203,"lon":14.44939},{"mkz":"35522584","name":"Lietzen","lat":52.48232,"lon":14.34338},{"mkz":"35522585","name":"Werder","lat":52.49231,"lon":14.49008},{"mkz":"35522592","name":"Alt Mahlisch OP","lat":52.46474,"lon":14.42269},{"mkz":"35522593","name":"Alt Mahlisch UP","lat":52.46474,"lon":14.42269},{"mkz":"35522594","name":"Alt Zeschdorf","lat":52.42455,"lon":14.45271},{"mkz":"35532622","name":"Reitwein, Dammeisterei","lat":52.49784,"lon":14.62658},{"mkz":"35532623","name":"Reitwein","lat":52.47677,"lon":14.60254},{"mkz":"35532624","name":"Reitwein","lat":52.48092,"lon":14.57751},{"mkz":"35532626","name":"Klessin","lat":52.45645,"lon":14.565},{"mkz":"35532628","name":"Lebus (Deich)","lat":52.44133,"lon":14.55174},{"mkz":"35532630","name":"Reitwein, Hathenower Wiesen","lat":52.4885,"lon":14.61638},{"mkz":"35532632","name":"Lebus (Deich)","lat":52.4575,"lon":14.5897},{"mkz":"35532634","name":"Reitwein, südlich Dammeisterei","lat":52.49426,"lon":14.62954},{"mkz":"35532636","name":"Reitwein, Wuhdener Weg","lat":52.49288,"lon":14.58093},{"mkz":"35532638","name":"Wuhden, Wuhdener Loose","lat":52.4662,"lon":14.56742},{"mkz":"35535245","name":"Lebus, Deich, HyLbu36/81","lat":52.46194,"lon":14.59543},{"mkz":"36404810","name":"Viesener Mühle","lat":52.31258,"lon":12.39588},{"mkz":"36404940","name":"Brandenburg-Görisgräben, Fl","lat":52.33744,"lon":12.48512},{"mkz":"36405943","name":"Woltersdorf, Str. nach Wusterwitz","lat":52.39796,"lon":12.37267},{"mkz":"36405960","name":"Warchau, ca. 2 km südöstl., OP","lat":52.34905,"lon":12.38305},{"mkz":"36405962","name":"Warchau, ca. 2 km südöstl., UP","lat":52.34905,"lon":12.38305},{"mkz":"36405970","name":"Wusterwitz, W.-Rathenau-Str.44","lat":52.39019,"lon":12.37442},{"mkz":"36405972","name":"Wusterwitz, Neubauten","lat":52.38274,"lon":12.37581},{"mkz":"36406300","name":"Kirchmöser, Zolchberge, OP","lat":52.3648,"lon":12.42259},{"mkz":"36406301","name":"Kirchmöser, Zolchberge, MP","lat":52.3648,"lon":12.42259},{"mkz":"36412040","name":"Brandenburg-Neuendorf","lat":52.39411,"lon":12.50634},{"mkz":"36412060","name":"Schmerzke, Schmerzker Heide, OP","lat":52.37567,"lon":12.57644},{"mkz":"36412061","name":"Schmerzke, Schmerzker Heide, MP","lat":52.37567,"lon":12.57644},{"mkz":"36412062","name":"Schmerzke, Schmerzker Heide, UP","lat":52.37567,"lon":12.57644},{"mkz":"36412070","name":"Brandenburg, Wilhelmsdorfer Landstraße UF","lat":52.39551,"lon":12.54214},{"mkz":"36412784","name":"Rietz Nord","lat":52.38342,"lon":12.64392},{"mkz":"36412961","name":"Prützke Ost OP","lat":52.34471,"lon":12.63628},{"mkz":"36412962","name":"Prützke Ost UP","lat":52.34471,"lon":12.63628},{"mkz":"36413850","name":"Krahne Ost OP","lat":52.3203,"lon":12.59091},{"mkz":"36413851","name":"Krahne Ost UP","lat":52.3203,"lon":12.59091},{"mkz":"36414990","name":"Brandenburg-Wilhelmsdorf","lat":52.37161,"lon":12.50134},{"mkz":"36422930","name":"Lehnin, ca. 400 m südl. AB","lat":52.33692,"lon":12.75581},{"mkz":"36422935","name":"Lehnin, Abzweig Str. nach Nahmitz/Kreisverkehr","lat":52.32938,"lon":12.72978},{"mkz":"36422940","name":"Göhlsdorf-Lehnin","lat":52.35054,"lon":12.77952},{"mkz":"36422942","name":"Netzen, Sportzentrum","lat":52.34524,"lon":12.68704},{"mkz":"36422952","name":"Trechwitz Ost","lat":52.36496,"lon":12.72603},{"mkz":"36422957","name":"Derwitz Ost","lat":52.39763,"lon":12.83115},{"mkz":"36432263","name":"Wildpark-West, Str. -Am Ufer-, OP","lat":52.39172,"lon":12.94576},{"mkz":"36432264","name":"Wildpark-West, Str. -Am Ufer-, UP","lat":52.39172,"lon":12.94576},{"mkz":"36432266","name":"Glindow, Glindower Eck","lat":52.37024,"lon":12.90814},{"mkz":"36432280","name":"Geltow, Am Pappeltor, OP","lat":52.36581,"lon":12.96589},{"mkz":"36432281","name":"Geltow, Am Pappeltor, UP","lat":52.36581,"lon":12.96589},{"mkz":"36432300","name":"Werder, Plantagenplatz","lat":52.37733,"lon":12.93242},{"mkz":"36432830","name":"Bliesendorf Süd","lat":52.31933,"lon":12.86006},{"mkz":"36432850","name":"Plötzin, Glindower Weg","lat":52.36255,"lon":12.85462},{"mkz":"36441820","name":"Potsdam, Nesselgrund, Eisenbahnbrücke, OP","lat":52.35467,"lon":13.04242},{"mkz":"36441821","name":"Potsdam, Nesselgrund, Eisenbahnbrücke, MP","lat":52.35467,"lon":13.04242},{"mkz":"36441822","name":"Potsdam, Nesselgrund, Eisenbahnbrücke, UP","lat":52.35467,"lon":13.04242},{"mkz":"36441860","name":"Wilhelmshorst, westl. Hubertus-/Forstweg, OP","lat":52.33348,"lon":13.04652},{"mkz":"36441861","name":"Wilhelmshorst, westl. Hubertus-/Forstweg, MP1","lat":52.33348,"lon":13.04652},{"mkz":"36441862","name":"Wilhelmshorst, westl. Hubertus-/Forstweg, MP2","lat":52.33348,"lon":13.04652},{"mkz":"36441863","name":"Wilhelmshorst, west. Hubertus-/ Forstweg, UP","lat":52.33348,"lon":13.04652},{"mkz":"36441897","name":"Caputh, Sportpl. Michend. Ch., UF","lat":52.34539,"lon":13.00586},{"mkz":"36441930","name":"Michendorf West OP","lat":52.31685,"lon":13.02265},{"mkz":"36441931","name":"Michendorf West MP","lat":52.31685,"lon":13.02265},{"mkz":"36441932","name":"Michendorf West UP","lat":52.31685,"lon":13.02265},{"mkz":"36441935","name":"Saarmund, Str. nach Tremsdorf","lat":52.30196,"lon":13.11702},{"mkz":"36441936","name":"Saarmund, Str. n. Langerwisch","lat":52.31694,"lon":13.11442},{"mkz":"36441944","name":"Langerwisch, Umgehungsstraße, UF","lat":52.31488,"lon":13.04617},{"mkz":"36441946","name":"Philippsthal,Str.Nudow-Drewitz","lat":52.34102,"lon":13.15879},{"mkz":"36441950","name":"Bergholz-Rehbrücke, Am Rehgraben","lat":52.35022,"lon":13.09779},{"mkz":"36441951","name":"Bergholz-Rehbrücke.,Weerthstr.,UF","lat":52.34423,"lon":13.10488},{"mkz":"36441968","name":"Pdm.-Bbg.,ehem.AB Auff. R.Bln.","lat":52.38137,"lon":13.14913},{"mkz":"36441970","name":"Potsdam, Str. Unter d. Eichen, OP","lat":52.37263,"lon":13.0956},{"mkz":"36441971","name":"Potsdam, Str. Unter d. Eichen, MP","lat":52.37263,"lon":13.0956},{"mkz":"36441972","name":"Potsdam, Str. Unter d. Eichen, UP","lat":52.37263,"lon":13.0956},{"mkz":"36441976","name":"Potsdam, Neuendorf.-/Schnellstr","lat":52.37168,"lon":13.12862},{"mkz":"36441980","name":"Wilhelmshorst, Michendorfer Platz","lat":52.32897,"lon":13.05653},{"mkz":"36441981","name":"Pdm.-Bbg., Wohngebiet Drewitz","lat":52.36922,"lon":13.14688},{"mkz":"36441987","name":"Pdm.-Bbg., Dianapark, OP","lat":52.3881,"lon":13.12272},{"mkz":"36441988","name":"Pdm.-Bbg., Dianapark, UP","lat":52.3881,"lon":13.12272},{"mkz":"36441989","name":"Potsdam, Goetheplatz UF","lat":52.39615,"lon":13.10258},{"mkz":"36441990","name":"Pdm.-Bbg., nahe Oberlinhaus, UF","lat":52.39265,"lon":13.08758},{"mkz":"36441991","name":"Potsdam, Zum Kahleberg 99","lat":52.36581,"lon":13.08412},{"mkz":"36442206","name":"Potsdam, Am Alten Markt 8","lat":52.39603,"lon":13.06153},{"mkz":"36442210","name":"Potsdam, W.-Staab-Str.7-9","lat":52.39833,"lon":13.05523},{"mkz":"36451010","name":"RF103/93OP","lat":52.36004,"lon":13.27054},{"mkz":"36451317","name":"Neu-Beeren, Str.Neu-B.-Ruhlsd.","lat":52.35849,"lon":13.26875},{"mkz":"36451328","name":"Großbeeren, Nußallee, OP","lat":52.35563,"lon":13.31579},{"mkz":"36451329","name":"Großbeeren, Nußallee, UP","lat":52.35563,"lon":13.31579},{"mkz":"36451340","name":"Ludwigsfelde, verl. d. Fichtestr., OP","lat":52.30538,"lon":13.2638},{"mkz":"36451341","name":"Ludwigsfelde, verl. d. Fichtestr., UP","lat":52.30538,"lon":13.2638},{"mkz":"36451342","name":"Ludwigsfelde, verl. d. Fichtestr., MP","lat":52.30538,"lon":13.2638},{"mkz":"36451351","name":"Großbeeren, B101, OP","lat":52.33756,"lon":13.30117},{"mkz":"36451352","name":"Großbeeren, B101, UP","lat":52.33756,"lon":13.30117},{"mkz":"36451355","name":"Ludwigsfelde, Neckarstraße","lat":52.31299,"lon":13.23935},{"mkz":"36451362","name":"RF104/93OP","lat":52.34328,"lon":13.28686},{"mkz":"36451921","name":"Ahrensdorf, Heide","lat":52.30536,"lon":13.22677},{"mkz":"36451922","name":"Sputendorf,nördl. Struveshof","lat":52.33052,"lon":13.22835},{"mkz":"36451938","name":"Ahrensdorf,1,5 km nördl., UP","lat":52.32784,"lon":13.19996},{"mkz":"36451939","name":"Ahrensdorf,1,5 km nördl., OP","lat":52.32784,"lon":13.19996},{"mkz":"36451956","name":"Stahnsdorf, Hildegardstraße, UP","lat":52.37332,"lon":13.21339},{"mkz":"36459821","name":"Teltow, Wiesenstraße, OP","lat":52.39314,"lon":13.29721},{"mkz":"36459822","name":"Teltow, Wiesenstraße, MP","lat":52.39314,"lon":13.29721},{"mkz":"36459823","name":"Teltow, Wiesenstraße, UP","lat":52.39314,"lon":13.29721},{"mkz":"36459946","name":"Teltow-Gewerbegebiet","lat":52.39692,"lon":13.23601},{"mkz":"36461150","name":"Selchow","lat":52.3577,"lon":13.47312},{"mkz":"36461325","name":"Diedersdorf, Grenzgraben, OP","lat":52.34646,"lon":13.34047},{"mkz":"36461326","name":"Diedersdorf, Grenzgraben, MP","lat":52.34646,"lon":13.34047},{"mkz":"36461327","name":"Diedersdorf, Grenzgraben, UP","lat":52.34646,"lon":13.34047},{"mkz":"36461392","name":"Mahlow, vor der Kirche","lat":52.3642,"lon":13.39117},{"mkz":"36461393","name":"Heinersdorf B101","lat":52.38616,"lon":13.33521},{"mkz":"36465000","name":"Klein-Beeren,am Grenzgraben, OP","lat":52.36834,"lon":13.36095},{"mkz":"36465001","name":"Klein-Beeren,am Grenzgraben, MP","lat":52.36834,"lon":13.36095},{"mkz":"36471134","name":"Wildau","lat":52.31677,"lon":13.63606},{"mkz":"36471402","name":"Kiekebusch","lat":52.33819,"lon":13.54269},{"mkz":"36471629","name":"Niederlehme","lat":52.30388,"lon":13.6532},{"mkz":"36471633","name":"Schönefeld","lat":52.3944,"lon":13.5329},{"mkz":"36471635","name":"Bohnsdorf 77a","lat":52.38887,"lon":13.56947},{"mkz":"36471636","name":"Bohnsdorf 77","lat":52.38886,"lon":13.56944},{"mkz":"36475116","name":"Wildau","lat":52.32726,"lon":13.64047},{"mkz":"36475124","name":"Schönefeld","lat":52.39089,"lon":13.49826},{"mkz":"36480290","name":"Zernsdorf","lat":52.29866,"lon":13.696},{"mkz":"36480941","name":"Freienbrink","lat":52.37113,"lon":13.81078},{"mkz":"36481586","name":"Erkner OP","lat":52.355,"lon":13.71677},{"mkz":"36481587","name":"Erkner UP","lat":52.35495,"lon":13.71677},{"mkz":"36485178","name":"Erkner","lat":52.39175,"lon":13.77915},{"mkz":"36485179","name":"Sieverslake","lat":52.36199,"lon":13.82301},{"mkz":"36490283","name":"Braunsdorf","lat":52.36017,"lon":13.9536},{"mkz":"36491640","name":"Spreenhagen","lat":52.33454,"lon":13.88354},{"mkz":"36500580","name":"Fürstenwalde","lat":52.35541,"lon":14.01757},{"mkz":"36501657","name":"Fürstenwalde","lat":52.35166,"lon":14.0489},{"mkz":"36501660","name":"Steinhöfel OP","lat":52.39724,"lon":14.16194},{"mkz":"36501661","name":"Steinhöfel UP","lat":52.39724,"lon":14.16194},{"mkz":"36505183","name":"Rauen OP","lat":52.34485,"lon":14.02582},{"mkz":"36505184","name":"Rauen MP","lat":52.34488,"lon":14.02583},{"mkz":"36505185","name":"Rauen UP","lat":52.3449,"lon":14.02585},{"mkz":"36505189","name":"Fürstenwalde","lat":52.36871,"lon":14.02755},{"mkz":"36510539","name":"Briesen, Kersdorfer See","lat":52.31262,"lon":14.23736},{"mkz":"36511628","name":"Steinhöfel MP","lat":52.39772,"lon":14.17298},{"mkz":"36511686","name":"Briesen Ost","lat":52.34591,"lon":14.29421},{"mkz":"36515157","name":"Briesen Süd","lat":52.32089,"lon":14.27718},{"mkz":"36515160","name":"Briesen, Spree","lat":52.30487,"lon":14.22404},{"mkz":"36520280","name":"Jacobsdorf","lat":52.33227,"lon":14.35189},{"mkz":"36521678","name":"Pillgram","lat":52.3258,"lon":14.38772},{"mkz":"36522650","name":"Booßen","lat":52.37524,"lon":14.46095},{"mkz":"36522651","name":"Treplin","lat":52.39541,"lon":14.39505},{"mkz":"36522652","name":"Ffo,IK West,Parkplatz-Allkauf","lat":52.35736,"lon":14.48874},{"mkz":"36532601","name":"Frankfurt, SMC Eurocash","lat":52.35983,"lon":14.52629},{"mkz":"36532653","name":"Frankfurt, Autobahnbrücke","lat":52.31851,"lon":14.50345},{"mkz":"36532655","name":"Frankfurt,  Berliner Straße 23a, AOK","lat":52.35396,"lon":14.54819},{"mkz":"36532660","name":"Frankfurt, Wendeschleife","lat":52.36381,"lon":14.54108},{"mkz":"36532662","name":"Frankfurt, Wollenweber-Luxemburg-Straße","lat":52.3473,"lon":14.54941},{"mkz":"36532663","name":"Frankfurt, Umformer, Kleine Scharrnstraße","lat":52.34395,"lon":14.55197},{"mkz":"36532664","name":"Frankfurt, Südseite Marienkirche","lat":52.3429,"lon":14.5542},{"mkz":"36532666","name":"Frankfurt, WTZ-Gelände","lat":52.37198,"lon":14.5239},{"mkz":"36532667","name":"Frankfurt, Große Oderstraße, Hausgiebel","lat":52.34634,"lon":14.55383},{"mkz":"36532674","name":"Frankfurt, Bergstraße, Kirche","lat":52.35213,"lon":14.54621},{"mkz":"36532677","name":"Frankfurt, Anger","lat":52.33786,"lon":14.55391},{"mkz":"36532681","name":"Frankfurt, Südring","lat":52.32793,"lon":14.52221},{"mkz":"36532682","name":"Frankfurt, Kieslingplatz","lat":52.34339,"lon":14.52529},{"mkz":"36532684","name":"Frankfurt, Villa \"Hahn\"","lat":52.34162,"lon":14.54874},{"mkz":"36532685","name":"Frankfurt, Kiga,Kongreßhotel","lat":52.34272,"lon":14.5559},{"mkz":"36532689","name":"Frankfurt, Mühlenthal","lat":52.31936,"lon":14.54459},{"mkz":"36532690","name":"Frankfurt, Mühlenthal, am Tunnel","lat":52.31792,"lon":14.54954},{"mkz":"36532699","name":"Frankfurt, Hellweg, Kleingartenanlage","lat":52.34065,"lon":14.51242},{"mkz":"37394610","name":"Dretzen Süd","lat":52.19877,"lon":12.29655},{"mkz":"37394620","name":"Ziesar, Galgenberg","lat":52.27548,"lon":12.30608},{"mkz":"37394630","name":"Ziesar, ca. 1,5 km südwestl.","lat":52.25858,"lon":12.25869},{"mkz":"37404600","name":"Glienecke Nord OP","lat":52.28658,"lon":12.38462},{"mkz":"37404601","name":"Glienecke Nord UP","lat":52.28658,"lon":12.38462},{"mkz":"37404700","name":"Gräben Süd","lat":52.2218,"lon":12.41077},{"mkz":"37404800","name":"Ziesar, südwestl. von Grebs OP","lat":52.24881,"lon":12.3897},{"mkz":"37404801","name":"Ziesar, südwestl. von Grebs UP","lat":52.24881,"lon":12.3897},{"mkz":"37413680","name":"Oberjünne West OP","lat":52.27925,"lon":12.63183},{"mkz":"37413681","name":"Oberjünne West UP","lat":52.27925,"lon":12.63183},{"mkz":"37413733","name":"Groß Briesen,nördl.Garzer B. OP","lat":52.26006,"lon":12.52605},{"mkz":"37413734","name":"Groß Briesen, nördl.Garzer B.UP","lat":52.26006,"lon":12.52605},{"mkz":"37413740","name":"Golzow, Galgenberg","lat":52.26376,"lon":12.5936},{"mkz":"37413750","name":"Dippmannsdorf Süd OP","lat":52.21253,"lon":12.5965},{"mkz":"37413760","name":"Ragösen","lat":52.25154,"lon":12.56719},{"mkz":"37413820","name":"Golzow West OP","lat":52.28229,"lon":12.56257},{"mkz":"37413822","name":"Golzow West UP","lat":52.28229,"lon":12.56257},{"mkz":"37421572","name":"Brück, Waldw.z.Fläming-Kaserne","lat":52.2074,"lon":12.7855},